state,year,quarter,latitude,longitude,metric,label
odisha,2022,4,20.46032839034224,86.09882529240666,18.0,cuttack district
bihar,2022,4,26.455305326193702,84.65314370231029,1.0,gopalganj district
bihar,2023,2,25.32484536144277,85.40143868428044,8.0,nalanda district
bihar,2024,1,26.286477443742456,86.42379234230407,2.0,madhubani district
telangana,2022,4,17.119339200008397,80.49382665784493,2.0,khammam district
maharashtra,2022,4,21.31446436690128,79.07015482048465,7.0,nagpur district
karnataka,2023,3,15.34016844568734,76.91244646228988,1.0,ballari district
bihar,2023,1,25.020204785506387,85.12200309318553,2.0,gaya district
gujarat,2020,2,23.57027115304034,70.65142125460594,1.0,kachchh district
uttar-pradesh,2020,3,28.03788362089002,79.29584907512574,1.0,budaun district
maharashtra,2023,3,21.228357677881466,79.56596325253265,3.0,bhandara district
uttar-pradesh,2024,4,25.857579314545877,80.91524342357481,2.0,fatehpur district
chhattisgarh,2021,3,21.88467680929594,83.34153342076118,10.0,raigarh district
bihar,2020,4,25.22633301457973,85.27742074284158,4.0,nalanda district
karnataka,2023,2,15.153403977178924,76.47366015961944,1.0,ballari district
andhra-pradesh,2024,1,14.68435774509936,79.54348408275608,1.0,spsr nellore district
bihar,2023,2,26.379563561530347,84.49599847111095,10.0,gopalganj district
chhattisgarh,2024,3,21.166254363915584,81.38942969817089,128.0,durg district
karnataka,2022,2,14.895295183533738,74.09463109843134,11.0,uttara kannada district
bihar,2021,3,25.76961830901463,85.64862513228498,2.0,samastipur district
uttar-pradesh,2021,3,28.26269755024182,79.96962772271038,1.0,pilibhit district
maharashtra,2021,3,18.71121902999612,77.47593338307468,1.0,nanded district
tamil-nadu,2022,1,13.1535375560964,79.61090489942326,35.0,thiruvallur district
tamil-nadu,2023,3,8.53614531332747,77.76237388528826,2.0,tirunelveli district
karnataka,2024,1,15.419430009560047,74.6107627558346,4.0,belagavi district
maharashtra,2024,1,19.27427867792896,75.90567529309948,2.0,beed district
andhra-pradesh,2024,3,16.421486040679888,80.54940073446988,274.0,guntur district
maharashtra,2024,1,20.857378689016468,80.05908042022612,1.0,gondia district
haryana,2023,1,28.85966468979015,76.76250729867353,4.0,rohtak district
uttar-pradesh,2024,4,27.320398814435936,79.16049714761834,8.0,mainpuri district
assam,2022,3,27.12239903010059,94.74327629055313,13.0,sivasagar district
maharashtra,2022,2,19.998051397143996,75.81271993338781,1.0,jalna district
madhya-pradesh,2021,2,24.212122491817464,81.76229511046485,1.0,sidhi district
karnataka,2023,1,16.22322864558113,75.45195163058563,2.0,bagalkote district
maharashtra,2023,3,20.90437255827641,74.22380201337529,1.0,dhule district
telangana,2022,2,17.044580504913654,78.16214369136112,23.0,rangareddy district
andhra-pradesh,2024,4,16.850212121337307,80.23770779550036,4.0,ntr district
rajasthan,2021,3,25.80950338454581,75.05527386450814,1.0,ajmer district
telangana,2023,2,17.156605939030772,77.7394855756989,3.0,vikarabad district
karnataka,2020,4,16.36646463989469,77.131258617636,1.0,raichur district
tamil-nadu,2020,2,10.634831577455673,77.01614358689307,6.0,coimbatore district
andhra-pradesh,2024,1,17.202785399716053,82.45902819302455,17.0,east godavari district
uttarakhand,2020,4,30.520559804158207,78.41266003203229,1.0,uttarkashi district
rajasthan,2023,3,27.69315822379339,75.55678213448269,1.0,sikar district
madhya-pradesh,2023,4,24.897461023941897,79.88008318918982,3.0,chhatarpur district
gujarat,2023,1,21.17306610423196,73.76543669682675,2.0,tapi district
odisha,2022,3,20.108477442421503,86.34274583522229,2.0,jagatsinghapur district
assam,2020,4,26.48289527282837,90.63463095395798,1.0,bongaigaon district
punjab,2020,4,30.82974924168545,75.85920524130329,4.0,ludhiana district
andhra-pradesh,2023,3,18.908358406370432,83.68270944693259,3.0,vizianagaram district
bihar,2023,3,26.853000526699088,84.60080929045814,1.0,pashchim champaran district
haryana,2023,1,28.15011817907561,76.77404750161458,2.0,rewari district
rajasthan,2020,4,29.35337932345045,73.22345574172566,1.0,ganganagar district
maharashtra,2020,4,21.232724006991937,78.88921461408252,14.0,nagpur district
karnataka,2022,3,12.31322317598222,76.091401111406,46.0,mysuru district
punjab,2024,4,31.37523731178235,75.71970391561408,1.0,jalandhar district
odisha,2024,2,21.14532986690608,85.42208090058685,1.0,dhenkanal district
bihar,2023,4,26.720508009469317,85.16349059146083,4.0,purbi champaran district
gujarat,2021,3,22.764569653623,70.97251225785524,2.0,morbi district
bihar,2024,1,26.38302006575436,87.67290737741685,3.0,kishanganj district
tamil-nadu,2024,4,10.70616744867929,77.39560042224907,2.0,tiruppur district
telangana,2020,2,17.315877931395676,80.69371769377543,1.0,bhadradri kothagudem district
tamil-nadu,2022,3,10.159718829088977,79.04755586880428,1.0,pudukkottai district
tamil-nadu,2024,4,10.06589895835723,78.56040688200504,1.0,sivaganga district
delhi,2024,4,28.54443223525236,77.29223320023456,655.0,south east district
karnataka,2020,4,12.155948691458116,76.51991947613865,1.0,mysuru district
maharashtra,2024,1,18.78492870242493,77.70514426192459,6.0,nanded district
uttar-pradesh,2024,3,28.141515314711583,79.57720075271835,4.0,bareilly district
karnataka,2024,3,14.219916027689289,75.00853989318185,1.0,shivamogga district
uttar-pradesh,2023,2,24.653296633986784,78.43540423861062,24.0,lalitpur district
madhya-pradesh,2024,2,23.21387439790402,77.43003569904403,771.0,bhopal district
andhra-pradesh,2024,3,18.71492980238381,83.22383143730293,2.0,parvathipuram manyam district
rajasthan,2022,1,25.369114866016773,72.77473246268165,8.0,jalore district
odisha,2023,2,21.039758349880763,85.04932533217043,4.0,anugul district
karnataka,2023,3,14.933367898303306,75.3237262133769,3.0,haveri district
telangana,2023,3,17.8312032611588,80.9373623359282,1.0,bhadradri kothagudem district
madhya-pradesh,2023,1,23.066832272264836,78.73061584852664,1.0,raisen district
madhya-pradesh,2023,3,23.10872468963761,75.30040090996116,1.0,ujjain district
karnataka,2022,1,16.21402979687396,74.70444252806931,4.0,belagavi district
gujarat,2024,4,23.27923290678205,71.91049339367723,2.0,ahmedabad district
odisha,2024,2,20.30590892957188,86.10901194459096,4.0,jagatsinghapur district
uttar-pradesh,2022,4,25.651584446223765,83.70397166795588,1.0,ghazipur district
andhra-pradesh,2024,3,14.808961470337374,80.01436559032136,1.0,sri potti sriramulu nellore district
andhra-pradesh,2021,2,18.423793815635747,83.34153342076118,1.0,vizianagaram district
west-bengal,2022,4,23.346719198198223,86.38328541854423,7.0,purulia district
madhya-pradesh,2022,1,23.611245277692216,77.56767350389504,1.0,vidisha district
maharashtra,2023,4,18.52711900356235,76.50835619494828,1.0,latur district
maharashtra,2022,3,19.33601010547503,78.08230843392138,1.0,nanded district
odisha,2023,4,19.795629055678116,84.75766995991948,1.0,ganjam district
uttar-pradesh,2021,1,26.09769789193049,80.47158657459656,1.0,fatehpur district
uttar-pradesh,2023,2,25.821928337828997,81.49928841516527,2.0,pratapgarh district
tamil-nadu,2021,4,11.619084345347591,79.7119418621192,1.0,cuddalore district
gujarat,2021,4,24.54769003757937,71.41212497235112,1.0,banas kantha district
gujarat,2021,1,22.27561500751847,73.23525247245122,54.0,vadodara district
west-bengal,2023,2,22.667623267184297,86.90731009801635,2.0,bankura district
bihar,2024,3,25.90285172522137,84.66360489022308,9.0,saran district
uttar-pradesh,2022,3,27.787579486705216,77.56767350389504,2.0,mathura district
tamil-nadu,2021,4,12.167450703672351,78.49224265244757,3.0,krishnagiri district
karnataka,2024,3,13.390717225140277,75.25373970206532,44.0,chikkamagaluru district
uttar-pradesh,2022,3,27.393557834501184,79.20563608018333,2.0,etah district
madhya-pradesh,2024,3,22.746226275328358,77.29223320023456,1.0,sehore district
andhra-pradesh,2023,4,16.98848793167159,81.7841702924854,529.0,east godavari district
maharashtra,2022,4,19.32984333899697,76.04499299765236,2.0,jalna district
jharkhand,2022,2,22.473358297718725,86.7064221927009,7.0,east singhbhum district
maharashtra,2022,3,21.04819884964259,79.5097549234024,1.0,nagpur district
bihar,2024,1,26.13508848392013,84.56938589838856,7.0,siwan district
bihar,2022,1,26.318708545811266,84.44352229327214,31.0,siwan district
chhattisgarh,2020,3,20.88319803488685,81.64186564422351,1.0,dhamtari district
tamil-nadu,2021,4,11.122114977595064,77.29223320023456,229.0,tiruppur district
uttar-pradesh,2024,2,28.439632014015263,78.69659723711398,1.0,sambhal district
maharashtra,2022,3,20.77249921760552,78.66256699955369,3.0,wardha district
assam,2021,4,24.368154046825996,92.43569601460378,1.0,karimganj district
bihar,2020,2,26.03607558573368,84.46451841387275,1.0,siwan district
andhra-pradesh,2022,1,16.666655354768,81.08098475426915,1.0,west godavari district
maharashtra,2024,3,20.47700128554105,74.8799517907351,1.0,jalgaon district
west-bengal,2021,3,26.13976740337269,89.21343445892099,3.0,koch bihar district
west-bengal,2021,2,22.33785843264405,87.87952300467136,3.0,purba medinipur district
jharkhand,2022,4,23.70656066151872,84.47501365036504,1.0,latehar district
assam,2024,3,24.88632556690333,92.66360662053494,4.0,cachar district
rajasthan,2022,2,28.754099863970584,75.21873456590254,1.0,churu district
uttar-pradesh,2024,4,28.22356793510827,78.0594873547313,1.0,bulandshahr district
gujarat,2020,4,23.119947754856888,72.62103033913469,10.0,gandhinagar district
uttar-pradesh,2022,1,26.134591569202342,81.23536116215816,1.0,rae bareli district
kerala,2021,3,10.626203931669208,76.04499299765236,25.0,thrissur district
bihar,2024,1,25.25226677618253,84.9869546942003,11.0,patna district
odisha,2024,2,21.791974397645745,87.22699726970693,22.0,baleshwar district
madhya-pradesh,2022,4,23.5424891551344,78.49224265244757,1.0,raisen district
andhra-pradesh,2021,3,16.97108936439255,81.09202178306411,1.0,west godavari district
odisha,2022,3,22.20758240437602,84.3909990905796,2.0,sundargarh district
maharashtra,2023,2,21.009963493544536,75.48690331265851,12.0,jalgaon district
karnataka,2023,4,12.206948129972698,76.64704699668393,26.0,mysuru district
assam,2023,1,26.164776322929,92.64374384168624,6.0,nagaon district
telangana,2022,4,17.336789078427252,79.03625439452695,3.0,yadadri bhuvanagiri district
assam,2023,1,27.067485461382045,94.27949347695387,2.0,majuli district
tamil-nadu,2021,3,8.941460570321423,77.29223320023456,6.0,tenkasi district
madhya-pradesh,2024,2,23.244774780130037,77.23476744643328,1.0,bhopal district
maharashtra,2024,4,20.932148467761877,78.97972709012171,112.0,nagpur district
odisha,2022,3,20.773148876352376,85.75128301518073,4.0,dhenkanal district
uttar-pradesh,2023,2,26.86553820288871,78.41266003203229,1.0,agra district
jammu-&-kashmir,2022,1,33.56039195527124,75.18372156165412,1.0,anantnag district
maharashtra,2024,4,19.816161871009456,78.61717532516249,1.0,yavatmal district
karnataka,2024,3,12.574904905282896,76.83173251222411,9.0,mandya district
karnataka,2023,2,15.055995180031498,76.5546031082873,24.0,ballari district
jharkhand,2022,4,22.79789106675785,86.31231974489663,3.0,east singhbhum district
andhra-pradesh,2021,1,13.424238731538331,79.54348408275608,32.0,chittoor district
jharkhand,2022,3,23.963551424555188,86.33260584217707,1.0,dhanbad district
assam,2022,4,26.138156368780923,91.0346773932616,1.0,barpeta district
uttar-pradesh,2023,3,28.23833075982923,79.64459648905714,2.0,bareilly district
maharashtra,2024,4,20.79896466562736,75.37036616117476,1.0,jalgaon district
gujarat,2022,4,21.21333474769388,72.90471363631887,113.0,surat district
uttar-pradesh,2022,2,25.458643743522767,83.0844531912709,4.0,varanasi district
andhra-pradesh,2022,2,18.38957682634149,83.7252266320834,2.0,srikakulam district
west-bengal,2023,3,21.771809702081264,88.41615227959252,2.0,south twenty four parganas district
andhra-pradesh,2024,3,13.568186233024097,78.67391170169752,1.0,annamayya district
rajasthan,2024,1,27.992641430696843,73.37676413753454,18.0,bikaner district
rajasthan,2022,2,27.995998826691903,73.78896894871082,2.0,bikaner district
maharashtra,2023,1,18.193596560276458,76.88939072173052,2.0,latur district
bihar,2023,3,25.591868711804334,84.56938589838856,3.0,bhojpur district
rajasthan,2022,3,25.96258886051879,74.02413671784227,2.0,pali district
uttar-pradesh,2023,3,26.663297944795254,82.26376159311367,2.0,ayodhya district
uttar-pradesh,2020,4,26.188311195860376,82.133281817645,2.0,sultanpur district
odisha,2024,4,19.191816365035667,84.78899066387379,8.0,ganjam district
gujarat,2020,3,21.6716325456766,72.5500596032378,3.0,bharuch district
west-bengal,2023,4,23.072338908181816,86.90731009801635,11.0,bankura district
rajasthan,2024,4,26.5858466336266,77.45298683394492,5.0,dholpur district
uttar-pradesh,2020,4,30.254580596024887,77.62497342187812,1.0,saharanpur district
tamil-nadu,2022,2,8.90876603835277,77.56767350389504,2.0,tirunelveli district
madhya-pradesh,2021,4,26.161277964049187,78.33301571784003,1.0,gwalior district
west-bengal,2020,4,23.441157690784785,85.8742095286338,1.0,purulia district
madhya-pradesh,2022,1,22.683567544775386,75.9985692625754,7.0,indore district
uttar-pradesh,2021,3,29.115103037012627,78.5263304921143,1.0,bijnor district
jharkhand,2022,2,24.04611633424801,85.82302509012833,4.0,hazaribagh district
andhra-pradesh,2023,4,15.081772044397706,78.25331016223771,1.0,kurnool district
tamil-nadu,2021,1,11.168469222858157,77.3381855201411,23.0,tiruppur district
rajasthan,2024,4,27.80124090477167,74.75126302188613,2.0,churu district
chhattisgarh,2022,1,20.98641350153172,81.57609449046042,2.0,durg district
andhra-pradesh,2023,2,17.05418745313198,82.26376159311367,7.0,east godavari district
maharashtra,2023,1,19.839524795481974,75.44029926156757,14.0,aurangabad district
haryana,2022,4,30.328390418272303,76.87786123226277,32.0,ambala district
chhattisgarh,2022,3,22.909678533593297,82.91250357978087,9.0,surguja district
rajasthan,2023,1,25.287191502321644,72.8574557944485,5.0,jalore district
punjab,2022,3,30.170688624051657,76.02178307708606,1.0,sangrur district
maharashtra,2023,2,20.003609948628444,73.75366953292578,428.0,nashik district
bihar,2021,1,25.769938292320948,86.54511666035863,5.0,saharsa district
west-bengal,2021,2,23.146589555053705,86.4743799938199,1.0,purulia district
uttar-pradesh,2021,1,28.70820359921876,79.16049714761834,3.0,rampur district
west-bengal,2022,4,21.93059194524526,87.7221872087428,1.0,purba medinipur district
odisha,2022,1,20.167571307277857,85.31879137160946,5.0,nayagarh district
west-bengal,2024,4,23.567778740599906,88.13401909634123,20.0,purba bardhaman district
maharashtra,2021,3,17.769801548934524,73.11725733266954,1.0,ratnagiri district
tamil-nadu,2023,1,8.934207886348265,77.38411971559434,3.0,tenkasi district
maharashtra,2022,1,20.874593160973625,75.98696089865172,2.0,jalgaon district
west-bengal,2023,1,22.712588711744555,88.32878957469845,255.0,hooghly district
andhra-pradesh,2020,3,16.320707593189855,80.37143260200438,42.0,guntur district
meghalaya,2024,1,25.7629954714052,91.89527132620286,1.0,ribhoi district
gujarat,2022,3,22.766210817689156,73.61241017489317,98.0,panch mahals district
uttar-pradesh,2024,1,26.69134590308224,83.25595326647776,11.0,gorakhpur district
telangana,2020,4,19.07133344670148,78.298863666532,17.0,nirmal district
rajasthan,2024,2,27.59225585176503,75.9985692625754,8.0,jaipur district
madhya-pradesh,2024,4,23.394366837139227,76.25370517852909,34.0,shajapur district
west-bengal,2024,2,25.6570097227002,88.14377823941402,22.0,uttar dinajpur district
andhra-pradesh,2024,1,16.227915840701815,79.89128125660861,1.0,guntur district
rajasthan,2024,2,24.98825174947749,76.11459928183801,2.0,kota district
jharkhand,2023,2,24.1026559433592,85.73076734385029,2.0,giridih district
maharashtra,2020,4,21.47213290902413,74.34115147359432,1.0,nandurbar district
bihar,2023,2,26.000478745228783,86.30217364222673,4.0,darbhanga district
uttarakhand,2021,1,30.25913626652268,78.41266003203229,1.0,tehri garhwal district
rajasthan,2024,2,27.833172392243384,76.35794005782289,1.0,alwar district
tamil-nadu,2020,3,11.490768046630134,77.59059696075337,2.0,erode district
gujarat,2024,3,20.52010759607116,72.89290004477898,2.0,valsad district
bihar,2024,3,25.873865879900148,86.95740226788428,9.0,madhepura district
meghalaya,2024,2,25.39616856863208,90.22915646281324,1.0,west garo hills district
karnataka,2023,1,12.576546061020016,77.32669913590907,1.0,ramanagara district
uttar-pradesh,2022,4,25.820639824749765,81.47732942119913,1.0,pratapgarh district
karnataka,2021,4,13.434792707676635,75.46360309640293,1.0,chikkamagaluru district
rajasthan,2020,2,28.0905783973818,73.35318521047911,1.0,bikaner district
uttarakhand,2024,2,29.573364963661803,79.6333673564944,21.0,almora district
gujarat,2020,3,24.169805592596795,72.73927109836653,1.0,banas kantha district
jharkhand,2022,4,25.04834190452893,87.78125243163673,2.0,sahebganj district
andhra-pradesh,2022,4,18.5190289127071,83.36291067534142,4.0,vizianagaram district
uttar-pradesh,2022,2,25.25629759964033,83.29875755466209,2.0,chandauli district
tamil-nadu,2020,2,8.828580418799811,78.1279359341075,4.0,thoothukkudi district
bihar,2024,2,26.21862149306165,85.64862513228498,9.0,muzaffarpur district
telangana,2020,4,18.143753675081065,79.26202936662962,1.0,siddipet district
odisha,2023,4,18.92885580629164,83.25595326647776,5.0,koraput district
bihar,2024,4,24.94531114772062,85.7717907206235,7.0,nawada district
maharashtra,2023,1,19.623778701774828,74.80977027171852,1.0,ahmednagar district
andhra-pradesh,2021,3,14.122483782552251,79.83527668111408,91.0,spsr nellore district
punjab,2020,3,30.14411458627458,76.1957617806103,15.0,patiala district
chhattisgarh,2021,1,21.93041403326522,83.33084212234169,6.0,raigarh district
uttar-pradesh,2021,4,28.30008155627913,78.8212750396855,2.0,budaun district
rajasthan,2023,3,27.38557570434367,76.24211849703654,6.0,alwar district
madhya-pradesh,2024,2,22.85894139271404,75.24207219999633,3.0,dhar district
uttar-pradesh,2024,3,25.16711978509543,79.05885601121777,1.0,jhansi district
madhya-pradesh,2023,4,22.56444409160277,76.50835619494828,2.0,dewas district
karnataka,2023,3,12.26642017676977,75.83596448863948,3.0,kodagu district
bihar,2023,4,25.86518423381357,86.54511666035863,22.0,saharsa district
maharashtra,2022,4,19.0617744542946,76.65859777369185,2.0,parbhani district
rajasthan,2021,4,24.61530765584628,77.00462604267338,2.0,baran district
telangana,2022,1,17.83171791637429,77.75093032135311,1.0,sangareddy district
uttar-pradesh,2024,2,28.19044402677352,78.20773680889053,2.0,bulandshahr district
andhra-pradesh,2023,4,14.972092595530318,78.35577750511321,1.0,ysr district
bihar,2021,4,26.73382851433813,84.87242838496222,1.0,purbi champaran district
odisha,2024,3,20.845135144370488,86.29202550458191,1.0,jajpur district
rajasthan,2024,1,25.635348713296427,74.0828838592642,3.0,bhilwara district
uttar-pradesh,2020,4,25.340787062896585,82.56727270547317,5.0,bhadohi district
chhattisgarh,2022,3,20.769247716986488,81.02577631468955,1.0,balod district
karnataka,2022,1,13.554570731933405,78.11653089466729,6.0,chikkaballapura district
uttar-pradesh,2023,2,25.22975826859556,79.27330396061865,1.0,jhansi district
maharashtra,2021,3,18.56097516035903,76.33478381722806,2.0,beed district
andaman-&-nicobar-islands,2023,3,9.18455306555336,92.81284629716966,3.0,nicobars district
haryana,2021,4,29.94827153683619,76.82019764862447,1.0,kurukshetra district
maharashtra,2021,3,20.29010171746298,76.4042403526058,1.0,buldhana district
karnataka,2021,4,14.271884853987364,75.1136721058433,1.0,shivamogga district
karnataka,2024,2,14.235787461512205,75.81271993338781,9.0,davanagere district
assam,2021,2,27.476532345338384,95.3154784356966,11.0,tinsukia district
uttar-pradesh,2021,3,26.53596122724511,82.08973525630255,4.0,ayodhya district
uttar-pradesh,2024,2,29.4521570996575,77.20027453793233,5.0,shamli district
west-bengal,2022,1,26.18697600308384,89.21343445892099,4.0,koch bihar district
haryana,2023,1,28.267436520944354,76.11459928183801,2.0,mahendragarh district
uttar-pradesh,2020,3,27.679799671817285,77.91103206676378,1.0,aligarh district
maharashtra,2024,1,19.014793995910747,73.04643092224194,625.0,raigad district
odisha,2023,3,20.70894559137477,85.12200309318553,1.0,anugul district
jammu-&-kashmir,2022,4,32.7734759675604,74.50531198636581,2.0,jammu district
tamil-nadu,2024,1,12.651969686414864,79.57720075271835,2.0,tiruvannamalai district
rajasthan,2024,2,24.531660493422265,73.98887973002672,2.0,udaipur district
andhra-pradesh,2021,2,16.537451050343805,80.03672588989679,1.0,guntur district
karnataka,2024,4,16.585114954504753,75.55678213448269,1.0,vijayapura district
arunachal-pradesh,2020,4,27.20640703947788,92.37642582964318,4.0,west kameng district
west-bengal,2024,1,23.182885376317973,87.82058640728447,55.0,purba bardhaman district
maharashtra,2021,2,20.29158596465853,78.70793806778147,1.0,yavatmal district
andhra-pradesh,2024,1,17.78291759514271,82.2746240405089,1.0,visakhapatnam district
gujarat,2021,3,23.951106766900647,72.94015091407597,1.0,sabar kantha district
west-bengal,2022,1,23.297022068437915,86.83709369534931,4.0,bankura district
odisha,2021,4,19.851440376523684,82.9340217212385,6.0,kalahandi district
punjab,2021,2,30.66829457068005,74.84486475527515,1.0,faridkot district
uttar-pradesh,2023,1,26.763771301368884,82.62133105703178,2.0,basti district
karnataka,2022,4,14.108641191922398,75.96374126459287,6.0,davanagere district
gujarat,2020,4,21.235306216362176,70.05626861226195,1.0,junagadh district
maharashtra,2024,1,19.088901084574783,72.8574557944485,2667.0,mumbai suburban district
chhattisgarh,2021,4,22.188055426570624,82.18767759796764,1.0,bilaspur district
uttar-pradesh,2024,3,28.8324286314177,79.27330396061865,1.0,rampur district
maharashtra,2021,4,21.08311600847242,74.774668379611,1.0,dhule district
telangana,2024,3,16.86880053204079,79.66705055598808,9.0,suryapet district
uttar-pradesh,2022,1,24.54542371776129,78.88921461408252,1.0,lalitpur district
west-bengal,2021,1,25.327667662842927,88.32878957469845,2.0,dakshin dinajpur district
uttar-pradesh,2022,2,27.14512283401403,82.10062438702498,1.0,gonda district
maharashtra,2022,4,16.73824103782945,74.3646122414788,7.0,kolhapur district
rajasthan,2021,4,26.83034947408561,76.95854495103909,1.0,karauli district
haryana,2021,1,28.38434366296836,76.58927739382993,1.0,rewari district
uttarakhand,2024,4,30.28858621156538,79.11533670045316,5.0,chamoli district
tamil-nadu,2023,1,13.169592463259988,80.01436559032136,15.0,thiruvallur district
west-bengal,2023,3,23.41499638531568,87.42570928874844,37.0,paschim bardhaman district
karnataka,2024,4,13.060322364450773,75.02022466170382,21.0,dakshina kannada district
kerala,2022,3,10.73635166335205,76.5546031082873,21.0,palakkad district
telangana,2022,4,16.600020581255368,79.41974969732168,1.0,nalgonda district
haryana,2021,4,29.093479177527385,75.90567529309948,5.0,hisar district
madhya-pradesh,2021,1,23.760030880415595,75.54513794623247,12.0,ratlam district
tamil-nadu,2021,4,12.638253708637489,78.17354381898866,3.0,krishnagiri district
rajasthan,2022,2,27.933106901274723,75.2304038207915,13.0,jhunjhunu district
madhya-pradesh,2021,1,24.34235393301392,78.5263304921143,3.0,sagar district
maharashtra,2020,4,21.555406678517883,74.84486475527515,2.0,dhule district
uttar-pradesh,2022,2,26.45495210871116,83.00928030221176,1.0,ambedkar nagar district
kerala,2020,4,10.75503258888033,76.23053081508246,2.0,palakkad district
madhya-pradesh,2021,4,22.1358186912751,79.03625439452695,3.0,chhindwara district
madhya-pradesh,2024,3,23.36946147448875,78.85525072171558,1.0,sagar district
haryana,2024,4,28.22277860277789,77.29223320023456,168.0,palwal district
telangana,2024,1,16.802834607799625,78.85525072171558,4.0,nalgonda district
telangana,2022,1,18.3181315072004,79.88008318918982,2.0,jaya shankar bhalupally district
rajasthan,2022,1,25.949660356750336,76.21894213408252,2.0,tonk district
andhra-pradesh,2024,2,14.713301493537738,77.79669747328762,11.0,anantapur district
tamil-nadu,2024,1,11.660925725152088,79.02495158966912,5.0,kallakkurichi district
maharashtra,2022,2,19.525712327631048,73.09365094896565,6.0,palghar district
rajasthan,2022,3,25.10946356159936,76.41581287924114,3.0,baran district
uttar-pradesh,2020,3,25.273085545809323,82.4265217335477,1.0,bhadohi district
odisha,2020,3,22.19019602775224,84.57986225569067,13.0,sundargarh district
assam,2024,4,26.99600635476674,95.02344716566748,12.0,charaideo district
karnataka,2022,2,14.561740987415154,75.90567529309948,6.0,davanagere district
uttar-pradesh,2024,4,27.366178737745685,78.43540423861062,1.0,etah district
kerala,2024,2,9.231484376418743,76.92397271060467,8.0,pathanamthitta district
tamil-nadu,2024,3,11.091712175070588,77.62497342187812,4.0,tiruppur district
karnataka,2020,4,16.029592341050133,74.52875102323281,1.0,belagavi district
maharashtra,2022,1,20.727015441608597,79.84648044141969,1.0,bhandara district
rajasthan,2024,3,23.25075890603297,74.15335626699198,6.0,banswara district
odisha,2022,2,21.562714272574937,87.05743019504452,1.0,baleshwar district
madhya-pradesh,2022,4,21.949848680154428,79.07015482048465,1.0,chhindwara district
karnataka,2021,1,14.80633088673138,74.12986841096104,32.0,uttara kannada district
uttar-pradesh,2020,3,26.571520833074825,79.72316117560048,2.0,kanpur dehat district
tamil-nadu,2022,4,9.482608939927546,78.5036065356818,3.0,ramanathapuram district
uttar-pradesh,2024,4,26.5786818780892,83.89500415829424,3.0,deoria district
andhra-pradesh,2020,4,16.373632680736442,81.60898731024885,7.0,west godavari district
rajasthan,2022,3,26.55142610438553,76.20735245545293,3.0,dausa district
west-bengal,2022,4,23.010640377512036,87.45544316199368,4.0,bankura district
odisha,2023,2,21.209815145196917,85.17385761059063,1.0,anugul district
west-bengal,2023,1,23.63047329712833,88.43554220339693,1.0,nadia district
odisha,2022,4,18.81042078906853,84.31738782612,2.0,gajapati district
karnataka,2023,4,15.316609495486558,76.33478381722806,5.0,koppal district
rajasthan,2022,3,25.36155301042749,73.28243314011549,4.0,pali district
chhattisgarh,2021,3,21.89868750110629,82.58890117122412,3.0,janjgir champa district
andhra-pradesh,2022,1,17.987158648998086,83.34153342076118,1.0,visakhapatnam district
haryana,2020,3,30.365216960368343,77.131258617636,1.0,ambala district
rajasthan,2024,1,25.240932881551263,74.27075087427112,2.0,bhilwara district
madhya-pradesh,2022,3,23.045296824414027,77.08522582470204,1.0,sehore district
assam,2024,2,27.19122591571268,94.45423106623296,1.0,lakhimpur district
uttar-pradesh,2022,4,26.040020286902024,79.8016568843829,1.0,jalaun district
andhra-pradesh,2020,3,15.039042857658009,77.25775711887478,3.0,anantapur district
punjab,2024,3,30.639319931957942,75.76621946092965,1.0,ludhiana district
maharashtra,2022,4,19.928105409066465,74.42325070848729,5.0,ahmednagar district
himachal-pradesh,2024,3,31.2421282351622,77.43003569904403,1.0,shimla district
maharashtra,2023,1,18.577986113800705,77.06220280750642,2.0,latur district
karnataka,2022,1,14.15139297057076,74.82146925802986,1.0,shivamogga district
maharashtra,2024,3,20.58807036967521,75.62662797368989,2.0,chhatrapati sambhaji nagar district
tamil-nadu,2022,1,11.68157472941501,79.27330396061865,2.0,kallakkurichi district
rajasthan,2021,3,27.00629186202079,77.23476744643328,1.0,bharatpur district
uttar-pradesh,2022,4,27.472581901932767,77.6593393814543,284.0,mathura district
assam,2023,2,26.13221127359968,91.64206989351544,123.0,kamrup metropolitan district
west-bengal,2023,4,22.701776450406204,86.82705447302818,2.0,bankura district
kerala,2023,4,12.051086248608778,75.34704796764395,38.0,kannur district
uttar-pradesh,2023,1,27.59434477029604,81.4114141727905,1.0,bahraich district
andhra-pradesh,2023,2,15.263427037007874,79.84648044141969,1.0,prakasam district
karnataka,2021,4,11.770558695291117,77.10824443175821,1.0,chamarajanagara district
uttar-pradesh,2023,3,27.88507225038162,77.49887533552753,2.0,mathura district
assam,2022,1,26.328339977586246,92.74314214242402,8.0,nagaon district
uttar-pradesh,2020,3,27.97896080855807,81.42240402698344,1.0,bahraich district
uttar-pradesh,2022,3,29.370856528420216,77.29223320023456,8.0,shamli district
karnataka,2022,3,17.37316506195388,77.487404934567,2.0,kalaburagi district
andhra-pradesh,2023,3,18.475076261663386,83.81017376296029,1.0,srikakulam district
rajasthan,2022,4,25.317180658584824,72.9165266460554,4.0,jalore district
maharashtra,2024,3,19.665828411932125,74.48186980965586,2.0,ahmednagar district
kerala,2023,3,9.726747748739436,76.50835619494828,19.0,kottayam district
rajasthan,2024,3,26.643910594242875,73.6595075078703,1.0,jodhpur rural district
maharashtra,2024,4,16.806553019273906,74.64589869746166,131.0,sangli district
odisha,2021,2,21.00639097978656,86.60566800967065,1.0,bhadrak district
karnataka,2023,3,17.376979404701707,76.83173251222411,9.0,kalaburagi district
uttar-pradesh,2020,3,26.313188245880337,84.03260329668399,1.0,deoria district
tamil-nadu,2022,3,11.837956363831392,79.25075341651123,3.0,kallakkurichi district
tamil-nadu,2023,2,11.112208986156048,77.06220280750642,11.0,coimbatore district
haryana,2024,3,28.658124277624218,76.56616224385043,18.0,jhajjar district
chhattisgarh,2021,4,23.84177124386533,82.85867780296965,3.0,balrampur district
andhra-pradesh,2023,4,17.813642019642426,82.45902819302455,1.0,visakhapatnam district
haryana,2024,4,29.91186064181583,76.79712471085682,30.0,kurukshetra district
maharashtra,2020,4,18.91018314926834,73.28243314011549,8.0,raigad district
bihar,2021,2,26.431656927266456,86.57540158639006,2.0,madhubani district
haryana,2020,3,29.05621367071608,77.01614358689307,1.0,sonipat district
madhya-pradesh,2024,3,23.53098805648511,76.61238837293442,1.0,shajapur district
madhya-pradesh,2022,3,23.16804692933953,75.81271993338781,26.0,ujjain district
andhra-pradesh,2024,3,18.423615507904287,83.68270944693259,2.0,srikakulam district
jammu-&-kashmir,2021,3,33.4368424728675,74.71614887015095,1.0,reasi district
odisha,2022,3,20.995033535687757,85.58693515753961,1.0,dhenkanal district
rajasthan,2022,4,26.781615861234425,75.62662797368989,15.0,jaipur district
madhya-pradesh,2020,3,21.90977207923564,79.72316117560048,1.0,seoni district
punjab,2024,3,30.64170862256544,75.48690331265851,2.0,ludhiana district
assam,2024,1,26.53926280089927,92.79292030900356,5.0,nagaon district
uttar-pradesh,2021,2,25.69350226526821,82.36146315887473,2.0,jaunpur district
tamil-nadu,2022,3,9.312845746422122,78.97972709012171,10.0,ramanathapuram district
tamil-nadu,2020,3,12.98996749599042,80.09260137693553,4.0,kancheepuram district
karnataka,2023,3,15.198221191650118,76.64704699668393,117.0,ballari district
west-bengal,2024,1,23.42745206518022,88.36763925689654,17.0,nadia district
gujarat,2023,4,23.932171910442047,71.99347994471653,1.0,patan district
uttar-pradesh,2022,2,25.70866031112056,82.4265217335477,1.0,jaunpur district
assam,2020,3,26.51522506354777,92.1499356321361,4.0,darrang district
bihar,2022,2,25.96109669435449,86.63591590963328,1.0,madhepura district
uttar-pradesh,2024,1,25.585493173170125,82.78324890385218,8.0,jaunpur district
karnataka,2024,3,14.207272461590764,75.34704796764395,11.0,shivamogga district
andhra-pradesh,2023,3,14.589843323612,78.75328844648128,8.0,ysr district
madhya-pradesh,2023,2,21.9870575652505,78.25331016223771,1.0,betul district
telangana,2023,3,17.891811816976492,79.14920904962835,1.0,jangaon district
maharashtra,2020,3,16.61396339111538,73.37676413753454,1.0,ratnagiri district
assam,2024,1,26.53906672011681,92.82281244301362,11.0,nagaon district
maharashtra,2024,1,21.209203621285585,78.88921461408252,74.0,nagpur district
maharashtra,2024,3,18.688844501051456,73.50640200727969,1.0,pune district
bihar,2021,4,24.986009416293232,84.80986157897219,1.0,gaya district
karnataka,2022,2,13.856516285869592,75.53349284323835,11.0,shivamogga district
odisha,2020,3,21.3507254226784,83.68270944693259,2.0,bargarh district
uttar-pradesh,2022,4,26.886409827080744,77.70514426192459,3.0,agra district
odisha,2022,4,18.76642930157584,82.69694084920934,43.0,koraput district
haryana,2024,3,27.94058714249954,77.47593338307468,7.0,palwal district
uttar-pradesh,2022,3,29.45774435738228,78.25331016223771,6.0,bijnor district
karnataka,2022,4,12.929288753008064,77.16577158261566,1.0,ramanagara district
punjab,2022,3,30.187550278798597,74.739559118527,3.0,bathinda district
west-bengal,2021,2,22.197053774667424,88.05586803034296,2.0,purba medinipur district
rajasthan,2024,4,27.1449355690288,77.10824443175821,10.0,bharatpur district
tamil-nadu,2023,4,9.889561619743857,78.5263304921143,3.0,sivaganga district
madhya-pradesh,2021,4,23.156644306220187,79.00234199334851,1.0,narsinghpur district
madhya-pradesh,2024,3,23.294400763521008,77.26925027100745,7.0,bhopal district
maharashtra,2024,4,21.188527070039157,79.30711959310398,1.0,nagpur district
bihar,2023,2,24.48335045862079,84.65314370231029,4.0,gaya district
bihar,2021,2,25.730343289095337,87.50495720908214,2.0,purnia district
rajasthan,2021,3,29.159660249993014,74.49359128975412,2.0,hanumangarh district
karnataka,2024,1,12.572606761924074,76.78558663947354,8.0,mandya district
odisha,2020,4,21.48511408894469,86.72654826490002,2.0,baleshwar district
maharashtra,2022,4,17.966209946026144,73.6595075078703,1.0,satara district
odisha,2021,3,22.001106013009743,86.92735321294253,1.0,mayurbhanj district
rajasthan,2022,1,24.812412824015187,74.25901478846667,1.0,chittorgarh district
karnataka,2021,4,13.814688222781792,75.96374126459287,3.0,chikkamagaluru district
jharkhand,2021,3,22.67629730548747,84.54842750853092,1.0,simdega district
gujarat,2024,1,23.371949116492534,72.39622386828997,10.0,mahesana district
kerala,2020,3,11.544261133466232,75.85920524130329,1.0,kozhikode district
maharashtra,2023,4,17.810674296365878,76.23053081508246,11.0,osmanabad district
gujarat,2021,3,23.07386575935413,72.62103033913469,124.0,gandhinagar district
madhya-pradesh,2022,4,22.555801442633893,75.71970391561408,79.0,indore district
rajasthan,2023,4,26.34441911025038,72.88108587294656,1.0,jodhpur district
telangana,2022,2,19.537663741284987,78.48087750095107,2.0,adilabad district
madhya-pradesh,2023,3,21.498441895672663,76.76250729867353,1.0,burhanpur district
uttar-pradesh,2024,2,25.856729911277416,82.794029650219,4.0,azamgarh district
bihar,2021,3,26.08677967713807,84.24368494056702,2.0,siwan district
tamil-nadu,2022,4,12.273615349731662,78.07089850397327,47.0,dharmapuri district
andhra-pradesh,2021,1,16.575287270899597,80.85991926425709,8.0,krishna district
bihar,2022,4,25.37709308954271,87.58406923117236,3.0,katihar district
rajasthan,2020,4,25.092634896951072,71.92234999023893,1.0,jalore district
uttar-pradesh,2023,4,27.225507325059382,79.28457719720743,4.0,mainpuri district
maharashtra,2024,3,15.950760303381056,73.61241017489317,2.0,sindhudurg district
madhya-pradesh,2024,1,24.191733606421412,79.52099936213783,1.0,damoh district
rajasthan,2024,3,27.445556450626903,77.3381855201411,7.0,deeg district
maharashtra,2022,4,19.14836903752075,72.99920129684928,1030.0,thane district
chhattisgarh,2022,1,22.607667688281197,82.5456374161248,1.0,korba district
odisha,2022,4,19.32622161165801,83.42699962860124,16.0,rayagada district
bihar,2022,3,26.54901857579923,84.64268061502929,1.0,purbi champaran district
rajasthan,2024,2,27.867709418482576,76.46209275527582,5.0,alwar district
rajasthan,2022,2,24.753494408460224,72.71562738313551,4.0,sirohi district
west-bengal,2023,1,23.612273882636707,87.89915135162347,3.0,birbhum district
rajasthan,2022,2,26.388305309785903,74.64589869746166,33.0,ajmer district
maharashtra,2021,4,19.887194112210192,76.47366015961944,4.0,jalna district
uttar-pradesh,2023,4,25.310281806108247,81.3894296981709,1.0,chitrakoot district
uttar-pradesh,2024,4,25.8341891522125,80.5605110605323,2.0,fatehpur district
karnataka,2021,1,15.963025081019836,76.9470219563662,1.0,raichur district
andhra-pradesh,2022,2,13.842976561704033,77.09673568018769,1.0,anantapur district
odisha,2023,1,20.466432149107277,86.39341521326247,1.0,kendrapara district
odisha,2021,2,20.9266801561361,86.21076723865,1.0,jajapur district
rajasthan,2023,2,24.93309854019099,71.21020239005595,1.0,barmer district
odisha,2021,2,20.753321939539067,86.4339139643604,2.0,jajapur district
karnataka,2023,2,15.32884104150642,75.1136721058433,1390.0,dharwad district
west-bengal,2023,1,24.329264291891963,88.17304266634669,6.0,murshidabad district
madhya-pradesh,2024,4,23.914882181688416,77.41855841533979,1.0,vidisha district
andhra-pradesh,2021,2,15.51206161730518,79.96962772271038,42.0,prakasam district
rajasthan,2024,3,26.996513482616503,74.12986841096104,4.0,nagaur district
tamil-nadu,2021,4,10.274477611633133,77.93388462171518,2.0,dindigul district
jharkhand,2020,3,22.81955720335657,86.2209316277805,88.0,east singhbhum district
gujarat,2020,4,22.79222870560662,73.5299640262457,1.0,panch mahals district
tamil-nadu,2023,1,11.64603726994508,78.07089850397327,80.0,salem district
odisha,2024,2,20.857213942311784,84.15934129536048,2.0,boudh district
uttar-pradesh,2022,1,27.11224233021438,79.47601330857533,26.0,kannauj district
andhra-pradesh,2024,1,14.942991179236548,79.91367311127598,1.0,spsr nellore district
maharashtra,2020,3,19.785517313954305,73.40034049636118,3.0,palghar district
karnataka,2022,1,13.046442343055036,74.78636983104354,21.0,dakshina kannada district
telangana,2021,4,18.507115549967533,79.47601330857533,1.0,peddapalle district
west-bengal,2021,4,23.427043364617344,88.32878957469845,3.0,purba bardhaman district
gujarat,2024,4,22.76943611770358,73.42391427494738,2.0,vadodara district
andhra-pradesh,2023,4,13.268943428699789,79.11533670045316,13.0,chittoor district
haryana,2022,2,28.876827828877488,76.82019764862447,3.0,sonipat district
uttar-pradesh,2024,1,27.04204967942103,82.78324890385218,3.0,basti district
tamil-nadu,2024,2,10.36395422272181,79.20563608018333,1.0,thanjavur district
karnataka,2023,4,14.417968910168687,76.5546031082873,6.0,chitradurga district
karnataka,2023,3,14.677011891050734,74.3880699403701,1.0,uttara kannada district
kerala,2023,3,11.749727161199344,75.53349284323835,40.0,kannur district
uttar-pradesh,2021,2,27.81297149712205,78.79861805244268,1.0,kasganj district
bihar,2022,2,24.510414914633454,84.1065661763329,2.0,aurangabad district
maharashtra,2024,3,20.014538067804093,73.62418551994026,1.0,nashik district
karnataka,2024,1,12.786110875447273,74.92672285045667,58.0,dakshina kannada district
madhya-pradesh,2023,2,22.882069058543344,76.2652908581448,1.0,dewas district
dadra-&-nagar-haveli-&-daman-&-diu,2024,3,20.212610268619617,73.04643092224194,6.0,dadra and nagar haveli district
rajasthan,2023,1,26.79745281756058,75.56842540654792,1.0,jaipur district
uttar-pradesh,2023,1,28.41354698973975,78.79861805244268,3.0,budaun district
madhya-pradesh,2021,4,22.706748793832187,77.38411971559434,1.0,sehore district
telangana,2021,1,16.931273412470805,79.52099936213783,2.0,nalgonda district
sikkim,2023,2,27.286123172246032,88.25098567594014,5.0,west district
maharashtra,2022,1,19.0619134130634,73.05823683256841,127.0,raigad district
karnataka,2023,2,13.733916339329044,78.08230843392138,1.0,chikkaballapura district
uttar-pradesh,2024,2,28.584115118225,80.41596031893934,5.0,kheri district
karnataka,2022,3,15.804819708679954,75.73133421000526,1.0,gadag district
rajasthan,2024,2,26.329285175442703,72.57371867694494,2.0,jodhpur district
rajasthan,2022,4,27.134559001650103,73.05823683256841,3.0,jodhpur district
jharkhand,2021,4,24.009118705780143,87.40587611607891,3.0,dumka district
chhattisgarh,2023,1,21.077010886735444,81.03682110480868,14.0,rajnandgaon district
rajasthan,2024,2,27.086412813688845,73.34139478762033,2.0,nagaur district
andhra-pradesh,2024,4,18.568944109431403,83.7677147582912,20.0,parvathipuram manyam district
gujarat,2022,1,23.12318891700573,70.00863059367427,8.0,kachchh district
tamil-nadu,2021,4,9.637088793956178,77.57913581303016,5.0,virudhunagar district
uttarakhand,2021,4,29.857420572523612,78.63987373291224,2.0,pauri garhwal district
bihar,2024,3,25.4941967164351,85.15312162928252,25.0,patna district
uttar-pradesh,2021,4,28.449783725504457,79.6894990170021,2.0,bareilly district
uttarakhand,2023,3,30.30354272289491,78.02524660458907,497.0,dehradun district
gujarat,2021,4,22.93755184705135,73.81249842275241,1.0,panch mahals district
west-bengal,2021,1,26.87756342276312,88.53236059619923,1.0,kalimpong district
odisha,2024,2,20.852399745201847,86.64599442311565,1.0,bhadrak district
rajasthan,2021,1,26.508445986931356,71.66140228045322,1.0,jaisalmer district
rajasthan,2024,3,25.82558735761801,73.23525247245122,4.0,pali district
maharashtra,2022,3,20.676880008295992,79.59967157741634,1.0,chandrapur district
madhya-pradesh,2024,3,22.68044285543248,78.09371714324185,6.0,narmadapuram district
madhya-pradesh,2023,4,23.14168826714968,78.31024893125932,1.0,raisen district
madhya-pradesh,2023,4,21.80213200639201,80.08142917150316,1.0,balaghat district
tamil-nadu,2021,4,11.729967360558176,79.07015482048465,4.0,kallakkurichi district
uttar-pradesh,2024,2,26.879293099801934,79.30711959310398,4.0,etawah district
rajasthan,2023,4,24.82939675844567,73.47105404337144,1.0,udaipur district
maharashtra,2023,2,19.890955348607765,72.92833907247791,4.0,palghar district
punjab,2023,1,29.95589180675708,74.91503133858134,1.0,bathinda district
telangana,2023,2,18.208779085008118,77.63642991038303,1.0,sangareddy district
punjab,2021,4,30.215197052641155,74.16509908485864,1.0,fazilka district
rajasthan,2022,3,24.692398456507952,72.20676806653618,3.0,jalore district
tripura,2022,3,23.572788212490597,91.37104016963607,2.0,sepahijala district
maharashtra,2024,1,17.246089323141998,74.84486475527515,2.0,sangli district
mizoram,2021,4,23.709861295824936,92.70335751146348,32.0,aizawl district
uttar-pradesh,2021,3,26.134791083460737,82.0461621600331,1.0,amethi district
west-bengal,2021,3,25.016539457171195,88.08519090408028,1.0,maldah district
karnataka,2024,2,12.489978451230089,76.69324379240518,9.0,mandya district
assam,2022,4,26.43703796604445,89.87389868982949,3.0,kokrajhar district
gujarat,2024,2,23.752092599313897,73.11725733266954,1.0,sabar kantha district
telangana,2021,2,16.85559719018803,79.8688836966946,9.0,suryapet district
maharashtra,2024,2,17.84218953204544,74.23554035653764,2.0,satara district
karnataka,2022,4,13.283928934777265,75.76621946092965,128.0,chikkamagaluru district
tamil-nadu,2022,3,11.430098575634222,76.48522653528333,1.0,the nilgiris district
uttar-pradesh,2023,3,25.177251428386345,82.8694464311077,3.0,mirzapur district
chhattisgarh,2023,1,17.93539862771649,81.42240402698344,1.0,sukma district
manipur,2022,1,24.62545598073354,93.77906837221953,1.0,bishnupur district
chhattisgarh,2021,2,20.582543028683496,81.06994617088361,6.0,balod district
karnataka,2024,4,13.2586377130426,75.92890456936505,1.0,chikkamagaluru district
west-bengal,2024,2,26.619002535274166,88.60000310792728,1.0,jalpaiguri district
karnataka,2022,3,13.950337786596036,74.83316741970363,2.0,shivamogga district
telangana,2024,1,19.502330154273693,78.66256699955369,3.0,adilabad district
andhra-pradesh,2023,3,16.598913098981914,80.10377213393234,6.0,guntur district
rajasthan,2021,3,25.021319601480965,71.18643972869334,1.0,barmer district
assam,2021,1,26.39973598585963,90.74852821574638,1.0,bongaigaon district
uttar-pradesh,2023,2,29.15012625469577,78.40128603949634,46.0,bijnor district
uttar-pradesh,2024,4,29.59020607511475,78.43540423861062,3.0,bijnor district
madhya-pradesh,2022,3,22.55165524278399,75.06695522632855,1.0,dhar district
himachal-pradesh,2023,3,31.74063768426661,76.60083340544226,6.0,hamirpur district
west-bengal,2020,4,26.021264051854207,87.96778279414188,2.0,uttar dinajpur district
maharashtra,2020,3,19.347841559936207,77.39560042224907,1.0,nanded district
bihar,2022,2,26.532644920907803,85.15312162928252,2.0,purbi champaran district
gujarat,2021,3,23.45599686522902,72.53822926103794,2.0,mahesana district
assam,2023,4,27.3959401389324,94.98185129838886,2.0,dibrugarh district
chhattisgarh,2022,3,18.18325072225603,81.44437896343535,1.0,sukma district
madhya-pradesh,2021,4,23.58917573771895,78.33301571784003,2.0,raisen district
uttar-pradesh,2024,1,26.79578540381876,81.52124101623185,13.0,bara banki district
tamil-nadu,2024,2,10.71361702035956,79.02495158966912,15.0,thanjavur district
odisha,2020,2,21.926179981728733,86.74666606823209,7.0,mayurbhanj district
chhattisgarh,2023,3,21.563942421708145,82.0134649664982,6.0,baloda bazar district
punjab,2022,3,31.48743231804072,76.02178307708606,1.0,hoshiarpur district
karnataka,2024,4,13.540212140800223,77.61351576653415,2.0,chikkaballapur district
odisha,2021,4,20.472871026635943,83.69334146406553,1.0,boudh district
maharashtra,2022,4,19.24905500352564,76.35794005782289,1.0,parbhani district
madhya-pradesh,2024,3,22.683567544775386,75.9985692625754,9.0,indore district
maharashtra,2023,3,19.51148375309208,75.98696089865172,5.0,jalna district
bihar,2023,4,26.04769714350652,85.8742095286338,5.0,darbhanga district
telangana,2023,3,18.40427288897444,77.7738162661549,1.0,kamareddy district
uttar-pradesh,2023,1,25.881080990706,83.05224675437415,2.0,azamgarh district
rajasthan,2020,2,25.40363393301297,73.45927007860999,1.0,pali district
kerala,2024,2,12.263603971555227,75.16037520703375,8.0,kasaragod district
haryana,2024,2,28.628457978817803,76.73942370312189,3.0,jhajjar district
maharashtra,2021,2,19.117104622343945,75.55678213448269,1.0,beed district
madhya-pradesh,2023,4,26.526265529793807,77.94530909499552,10.0,morena district
uttar-pradesh,2021,1,28.361286611267047,78.18494271533844,1.0,bulandshahr district
bihar,2021,2,26.516457343599964,84.6949770486526,2.0,purbi champaran district
madhya-pradesh,2023,1,25.07429828145172,78.16214369136112,1.0,shivpuri district
punjab,2022,4,30.893665078298145,76.5546031082873,2.0,rupnagar district
jharkhand,2022,4,23.821339813748075,85.8742095286338,3.0,bokaro district
madhya-pradesh,2023,2,21.73309882099637,75.53349284323835,1.0,khargone district
telangana,2023,4,17.521728212381188,79.21691744209795,1.0,jangaon district
haryana,2020,4,28.311707245427623,76.32320417856843,3.0,mahendragarh district
uttar-pradesh,2022,2,25.9180483805903,82.38315610422457,2.0,pratapgarh district
uttar-pradesh,2024,1,26.74557577990372,80.03672588989679,1.0,kanpur nagar district
telangana,2024,4,16.987995955598457,78.62852517102334,2.0,rangareddy district
bihar,2020,3,26.801026062363487,85.11162636754604,1.0,purbi champaran district
madhya-pradesh,2021,4,22.80581027356944,75.67317338923417,1.0,indore district
karnataka,2024,3,13.902448092608218,75.53349284323835,922.0,shivamogga district
karnataka,2023,1,18.24030664949308,77.40707998928626,3.0,bidar district
uttar-pradesh,2024,4,25.295280671853952,82.61052280488536,4.0,bhadohi district
assam,2022,1,27.108787759831472,94.0746560662921,1.0,lakhimpur district
west-bengal,2024,1,22.64205234225461,86.81701317601842,1.0,jhargram district
kerala,2022,1,11.056998709418956,75.84758534101024,20.0,malappuram district
bihar,2023,2,26.788202898815552,84.44352229327214,3.0,pashchim champaran district
karnataka,2020,2,15.196701442451907,75.87082418808833,3.0,gadag district
chhattisgarh,2024,2,23.339070142627083,82.99853431455101,13.0,surajpur district
tamil-nadu,2023,2,12.38545204179746,79.7119418621192,5.0,chengalpattu district
haryana,2023,4,29.18261263676784,76.56616224385043,8.0,sonipat district
odisha,2023,3,20.721268103855344,83.67207561753938,3.0,sonepur district
kerala,2021,3,11.67443968372198,75.58006776098746,4.0,kozhikode district
gujarat,2024,1,23.436348307047982,73.82426211435131,1.0,mahisagar district
punjab,2023,2,30.63623445741936,76.68169617295068,5.0,sas nagar district
rajasthan,2022,4,24.41651065014492,74.34115147359432,2.0,chittorgarh district
west-bengal,2022,2,25.286208932069503,88.98446149902016,2.0,dakshin dinajpur district
uttar-pradesh,2022,4,29.4985368557238,78.07089850397327,1.0,bijnor district
uttar-pradesh,2021,4,26.7524652745573,80.64933959721351,1.0,unnao district
punjab,2022,4,30.414352726024937,75.53349284323835,13.0,barnala district
gujarat,2024,3,21.96734400905984,72.83382341291562,1.0,bharuch district
bihar,2023,3,26.23549690185223,84.74722590719226,5.0,gopalganj district
chhattisgarh,2023,4,23.340984006136853,83.04150776816577,8.0,surajpur district
assam,2024,1,26.396986669297025,92.82281244301362,37.0,nagaon district
uttar-pradesh,2023,4,25.37710339026288,80.74915625193516,1.0,banda district
odisha,2024,2,21.208169573377944,86.02746223630776,1.0,kendujhar district
uttar-pradesh,2021,2,26.824200175193624,78.61717532516249,1.0,agra district
tamil-nadu,2024,1,11.77486526816123,79.07015482048465,2.0,kallakkurichi district
rajasthan,2024,4,24.68231748625801,74.64589869746166,25.0,chittorgarh district
kerala,2023,4,9.125504463343566,76.69324379240518,87.0,pathanamthitta district
tamil-nadu,2021,2,10.664037841203497,76.92397271060467,2.0,coimbatore district
andhra-pradesh,2021,3,18.460531847403733,84.0748788859585,3.0,srikakulam district
haryana,2024,3,29.264285880586627,75.92890456936503,1.0,hisar district
rajasthan,2021,1,24.482519347165,74.20032308006297,1.0,udaipur district
maharashtra,2024,3,18.22838210539201,74.58733480122888,2.0,pune district
uttarakhand,2023,4,30.485470633503912,78.40128603949634,1.0,uttarkashi district
punjab,2023,2,30.40361675485329,76.7047903565463,8.0,patiala district
uttar-pradesh,2021,4,28.77926834905216,78.61717532516249,2.0,sambhal district
andhra-pradesh,2021,2,18.532335300795705,83.40564378729636,2.0,vizianagaram district
uttar-pradesh,2023,1,25.93584848866586,80.68262543691212,3.0,fatehpur district
assam,2023,3,24.602470213521084,92.6238895147449,5.0,hailakandi district
odisha,2024,2,19.835987802550186,85.36013070374008,3.0,khordha district
uttar-pradesh,2024,2,25.337643399440875,81.43339229091151,5.0,kaushambi district
tamil-nadu,2022,4,10.47121557591132,78.7759558512489,8.0,pudukkottai district
rajasthan,2021,3,25.760889283049327,73.27063891449355,1.0,pali district
gujarat,2022,2,23.370057786134023,73.63596019144958,2.0,mahisagar district
uttar-pradesh,2020,2,29.737080017627104,77.21177329224568,1.0,saharanpur district
bihar,2024,4,25.652539038687173,84.94533569493937,21.0,patna district
west-bengal,2021,3,26.877260610610367,88.50333806228032,1.0,kalimpong district
karnataka,2022,4,16.297907669056812,75.88244217993557,4.0,bagalkote district
haryana,2021,4,29.32415382202272,76.61238837293442,2.0,jind district
andhra-pradesh,2021,1,15.870677153644662,80.20424356576618,3.0,prakasam district
andhra-pradesh,2022,1,17.064529627537215,80.57161988738399,1.0,krishna district
assam,2023,4,26.859931965896404,91.95391058343192,1.0,udalguri district
bihar,2024,1,25.159448012102285,86.2209316277805,5.0,lakhisarai district
maharashtra,2021,2,18.446751220684597,73.89482953406639,245.0,pune district
uttar-pradesh,2023,4,26.126994664175943,83.25595326647776,6.0,azamgarh district
uttar-pradesh,2023,1,25.27330990276017,80.59383303867882,1.0,banda district
maharashtra,2022,2,21.500690580859125,75.02022466170382,1.0,dhule district
andhra-pradesh,2023,2,14.62066921788586,78.44677445002056,5.0,ysr district
jammu-&-kashmir,2024,3,33.017175138814075,75.67317338923417,5.0,doda district
tamil-nadu,2021,1,12.453985946519085,78.34439723705043,1.0,krishnagiri district
bihar,2024,2,25.653142238893366,86.59558125904256,8.0,saharsa district
tamil-nadu,2022,1,12.948264917911064,80.19308589963396,863.0,chennai district
rajasthan,2022,2,27.42826894125853,77.05068964855819,1.0,bharatpur district
jammu-&-kashmir,2024,1,32.449819017612334,75.34704796764395,6.0,kathua district
maharashtra,2023,3,17.566729652998067,73.15266233724229,2.0,ratnagiri district
odisha,2023,2,21.32689161313273,84.34894674850409,2.0,sambalpur district
uttarakhand,2023,3,29.72750200984764,79.84648044141969,2.0,bageshwar district
chhattisgarh,2024,4,21.41882764653117,81.69663059424752,6.0,raipur district
bihar,2022,1,25.222660455794607,85.16349059146083,10.0,jehanabad district
madhya-pradesh,2022,4,21.633409856654428,75.85920524130329,1.0,khargone district
kerala,2024,1,11.766294942358012,75.85920524130329,7.0,wayanad district
maharashtra,2024,3,17.500016972240456,74.12986841096104,5.0,satara district
uttar-pradesh,2021,1,26.844857458751974,80.99263265635967,223.0,lucknow district
bihar,2024,2,26.020443655136667,87.20707969099645,2.0,araria district
rajasthan,2023,4,27.694968389851777,77.18877466730578,1.0,bharatpur district
andhra-pradesh,2020,2,15.379645689264732,80.1149414412708,1.0,prakasam district
rajasthan,2020,2,27.31953325587219,77.34967077159413,4.0,bharatpur district
chhattisgarh,2021,1,22.269981243039965,82.67534662858868,1.0,korba district
telangana,2022,1,16.981109670756556,77.71659254463381,5.0,narayanpet district
assam,2024,1,25.73524573222681,92.87267466120473,4.0,dima hasao district
assam,2022,3,26.549238085682045,92.22858642001364,7.0,darrang district
kerala,2024,3,9.559404738877069,76.69324379240518,33.0,kottayam district
uttar-pradesh,2020,2,26.54206187345026,80.47158657459656,19.0,unnao district
tamil-nadu,2022,1,11.449782700253715,76.64704699668393,4.0,the nilgiris district
west-bengal,2022,4,22.750961364448568,86.90731009801635,4.0,bankura district
rajasthan,2024,1,29.324132277011675,73.43570019289774,1.0,ganganagar district
andhra-pradesh,2022,2,15.56535568169108,79.84648044141969,14.0,prakasam district
rajasthan,2022,3,26.002154940101985,73.76543669682675,1.0,pali district
bihar,2020,3,24.78266204931992,84.74722590719226,1.0,gaya district
uttar-pradesh,2023,4,25.407899840687907,78.5263304921143,231.0,jhansi district
chhattisgarh,2020,4,21.65565154546433,81.47732942119913,1.0,bemetara district
bihar,2021,2,26.134698917667844,84.90368590272766,1.0,saran district
madhya-pradesh,2022,4,25.047774904317045,79.67827548785871,1.0,chhatarpur district
tamil-nadu,2023,3,12.015292462647082,79.47601330857533,3.0,viluppuram district
maharashtra,2023,3,18.043824661293637,73.89482953406639,1.0,satara district
chhattisgarh,2020,4,22.709393693466808,83.52301227065563,1.0,surguja district
karnataka,2020,3,17.168922210265205,76.32320417856843,3.0,kalaburagi district
west-bengal,2022,3,26.657888365648397,89.02271264647237,6.0,jalpaiguri district
uttarakhand,2023,3,30.446130585950183,78.43540423861062,3.0,tehri garhwal district
uttar-pradesh,2023,4,28.054116624075505,80.10377213393234,12.0,shahjahanpur district
jharkhand,2021,1,24.412140204863785,85.37046064022891,2.0,hazaribagh district
maharashtra,2020,4,16.999704356234876,75.24207219999633,1.0,sangli district
arunachal-pradesh,2022,2,27.08550423571841,93.62684641739764,47.0,papum pare district
haryana,2023,2,27.80514832901,77.24626284355908,6.0,mewat district
bihar,2024,2,24.93955819392167,84.19098410603638,21.0,rohtas district
bihar,2024,3,25.5337348921568,84.90368590272766,11.0,patna district
chhattisgarh,2021,1,22.08810304930609,83.12737051811361,1.0,raigarh district
uttar-pradesh,2021,3,26.66506646495929,82.30720131670176,4.0,ayodhya district
andhra-pradesh,2021,3,16.907242801844333,82.08973525630255,3.0,east godavari district
uttar-pradesh,2024,4,27.847185106212304,77.70514426192459,5.0,mathura district
tamil-nadu,2021,3,10.772938159840884,79.48726189536333,6.0,thiruvarur district
bihar,2024,4,25.931039349564447,86.87722982290258,2.0,madhepura district
madhya-pradesh,2024,4,26.47409755995968,78.45814339842369,1.0,bhind district
west-bengal,2023,2,25.2942753964383,88.53236059619923,6.0,dakshin dinajpur district
maharashtra,2021,3,19.888922096682197,75.4752536575752,1.0,aurangabad district
odisha,2020,3,20.49887295466794,83.12737051811361,1.0,balangir district
tamil-nadu,2023,1,12.66710817643013,79.96962772271038,227.0,chengalpattu district
west-bengal,2023,3,22.25313019535297,88.98446149902016,1.0,north twenty four parganas district
madhya-pradesh,2023,1,24.077232227960348,75.82434268562162,1.0,mandsaur district
madhya-pradesh,2021,2,23.23365059226061,76.02178307708606,6.0,ujjain district
kerala,2024,2,9.295282718743504,76.60083340544226,80.0,alappuzha district
madhya-pradesh,2024,2,26.647308799342607,78.73061584852664,4.0,bhind district
arunachal-pradesh,2024,3,27.203648168148,92.504941356271,14.0,west kameng district
rajasthan,2023,1,26.688164073473647,72.70380468835467,1.0,jodhpur district
bihar,2021,1,24.81409615403302,84.61127996609257,11.0,aurangabad district
madhya-pradesh,2022,3,23.890041289433796,76.43895486617586,6.0,rajgarh district
gujarat,2024,2,21.27605314517521,73.85954898955855,3.0,tapi district
karnataka,2024,3,15.105921656366034,76.60083340544226,5.0,ballari district
karnataka,2022,1,13.40327839672866,74.739559118527,13.0,udupi district
rajasthan,2024,2,26.956061508658955,76.56616224385043,13.0,dausa district
west-bengal,2022,4,26.16318920838629,89.18488301728242,8.0,koch bihar district
assam,2022,4,26.35436912495452,89.83645583335291,5.0,dhubri district
kerala,2024,3,9.53166617826288,77.10824443175821,3.0,idukki district
maharashtra,2024,1,17.477100678631423,73.57708011349173,1.0,ratnagiri district
punjab,2022,3,30.947348404277378,75.90567529309948,14.0,ludhiana district
haryana,2022,3,29.25890932150222,75.35870751022537,5.0,hisar district
uttar-pradesh,2022,3,26.6083193023296,79.56596325253265,4.0,auraiya district
madhya-pradesh,2021,1,21.86302770837162,75.95212999730916,7.0,khargone district
west-bengal,2024,4,24.371894737511983,87.80092370698576,4.0,birbhum district
tamil-nadu,2024,2,11.43121914245913,79.17178390094504,1.0,cuddalore district
gujarat,2024,1,23.233571439013076,70.08008633500296,1.0,kachchh district
chhattisgarh,2022,4,22.692096664040704,82.57808779182939,1.0,korba district
chhattisgarh,2023,1,23.697132578673127,83.33084212234169,1.0,balrampur district
karnataka,2023,4,13.127895328189002,77.07371486668141,3.0,tumakuru district
maharashtra,2020,4,21.29771698271961,74.96179235339719,1.0,dhule district
haryana,2023,1,30.040548081094823,76.9470219563662,1.0,kurukshetra district
tamil-nadu,2023,4,12.99663167605095,79.12662882476769,9.0,vellore district
kerala,2023,4,12.565357531003537,74.97348050527863,29.0,kasaragod district
telangana,2024,4,17.93915568160368,80.73807157440727,3.0,bhadradri kothagudem district
haryana,2022,3,28.807007581018176,76.69324379240518,9.0,rohtak district
maharashtra,2024,1,18.68641905809497,76.92397271060467,48.0,latur district
rajasthan,2020,3,25.292189642595364,74.31768764854306,1.0,bhilwara district
uttar-pradesh,2023,3,28.377310172164737,78.10512463060137,1.0,bulandshahr district
himachal-pradesh,2022,1,31.60138041181298,76.5546031082873,16.0,hamirpur district
karnataka,2024,1,13.161081921534716,76.62394229490556,2.0,tumakuru district
madhya-pradesh,2021,3,24.1633694259976,77.7394855756989,1.0,vidisha district
uttar-pradesh,2023,3,25.722587061545823,83.99029819916053,1.0,ballia district
himachal-pradesh,2022,3,31.036091628799653,76.62394229490556,2.0,solan district
karnataka,2023,3,13.67865750304008,77.20027453793233,7.0,tumakuru district
rajasthan,2024,3,28.44740210986222,74.3294199424752,1.0,churu district
chhattisgarh,2023,4,22.3099826509412,82.48069069159882,8.0,korba district
karnataka,2022,3,15.618173021928875,74.65760907471305,3.0,belagavi district
assam,2021,1,26.27709943162333,91.37104016963607,2.0,nalbari district
uttar-pradesh,2022,2,26.9655635178052,80.34915986589677,1.0,hardoi district
assam,2023,1,26.57309101345134,91.25541122961086,2.0,baksa district
bihar,2022,4,24.988483026418475,84.2331484963931,2.0,rohtas district
andhra-pradesh,2021,3,14.184564981167446,79.16049714761834,31.0,ysr district
tamil-nadu,2022,2,11.884644571015484,79.29584907512574,6.0,kallakkurichi district
uttar-pradesh,2022,2,28.495566947984194,79.38597503411559,1.0,bareilly district
uttar-pradesh,2022,3,27.68377749828453,77.44151183903392,1.0,mathura district
andhra-pradesh,2021,4,18.411267398359367,84.03260329668399,30.0,srikakulam district
odisha,2024,2,19.711042539612432,85.56635599856945,3.0,puri district
uttar-pradesh,2022,4,26.30800741273333,82.65374554202978,2.0,ambedkar nagar district
karnataka,2023,4,13.750676914085252,75.2770720689906,2.0,shivamogga district
rajasthan,2022,1,29.091686217479385,73.836025107013,1.0,ganganagar district
uttar-pradesh,2020,4,27.383177098736383,77.69369480289957,7.0,mathura district
bihar,2021,4,27.049732458675145,84.2331484963931,5.0,pashchim champaran district
jharkhand,2024,3,25.02842337501745,87.30658337616205,32.0,godda district
rajasthan,2023,4,24.95300800771334,73.64773418792493,2.0,rajsamand district
andhra-pradesh,2022,3,14.537640829913489,79.83527668111408,3.0,spsr nellore district
karnataka,2024,1,11.832684002505273,77.24626284355908,12.0,chamarajanagara district
west-bengal,2024,4,23.660772245560217,87.9383822355797,9.0,purba bardhaman district
gujarat,2021,3,22.396631424525275,73.07004214146973,2.0,vadodara district
odisha,2024,3,20.56571295146747,83.02002454105491,1.0,balangir district
west-bengal,2021,4,23.387331866207717,87.97757867123379,2.0,purba bardhaman district
west-bengal,2024,3,24.14220058928124,88.4452338874107,28.0,murshidabad district
tamil-nadu,2022,4,11.51825083181123,79.07015482048465,4.0,cuddalore district
karnataka,2022,1,13.08539087622608,78.0594873547313,2.0,kolar district
chhattisgarh,2023,1,21.17973774530794,80.53828891039173,1.0,rajnandgaon district
odisha,2022,2,19.45128820296011,82.40484229864703,5.0,nabarangpur district
andhra-pradesh,2024,1,13.37934825772442,79.03625439452695,4.0,chittoor district
karnataka,2024,3,13.29602211305974,75.02022466170382,3.0,udupi district
maharashtra,2022,4,20.984806029854614,77.07371486668141,1.0,akola district
chhattisgarh,2022,3,20.19265705867324,80.8377788738132,1.0,kanker district
assam,2023,2,27.035037089785398,93.76890601176466,2.0,lakhimpur district
assam,2022,4,26.57283291161153,91.2939189834656,2.0,baksa district
odisha,2022,4,21.395428544064337,85.89466930039477,5.0,kendujhar district
bihar,2022,2,25.951434492164125,87.30658337616205,1.0,purnia district
rajasthan,2022,2,24.088865538598373,75.82434268562162,1.0,jhalawar district
karnataka,2024,1,15.375895466553072,75.4752536575752,1.0,gadag district
west-bengal,2023,1,21.910077395263613,87.97757867123379,2.0,purba medinipur district
jammu-&-kashmir,2023,1,32.522195081092825,74.8799517907351,13.0,samba district
gujarat,2024,1,24.621682678003925,71.36462364120526,2.0,banas kantha district
maharashtra,2022,4,21.30090105137963,74.97348050527863,2.0,dhule district
uttar-pradesh,2021,1,29.000510685293555,78.26470040247202,3.0,amroha district
west-bengal,2021,2,23.16443007802819,87.3959563546821,1.0,bankura district
andhra-pradesh,2022,4,18.84150421220357,83.45901997466736,2.0,vizianagaram district
chhattisgarh,2021,4,22.76079657015761,83.05224675437415,1.0,surguja district
maharashtra,2024,4,18.62092369312672,75.5917091963611,4.0,dharashiv district
bihar,2021,4,26.07309409255648,86.38328541854423,2.0,madhubani district
himachal-pradesh,2022,1,32.019913629969004,76.69324379240518,29.0,mandi district
assam,2023,1,27.52092359392061,95.69313555556452,2.0,tinsukia district
odisha,2020,4,20.73558053436472,86.1802619071185,1.0,jajapur district
maharashtra,2022,3,18.40814658416345,76.79712471085682,7.0,latur district
gujarat,2021,1,21.88162286168617,72.68015763203248,1.0,bharuch district
uttar-pradesh,2022,1,27.820176915565757,80.59383303867882,1.0,kheri district
gujarat,2024,3,23.04294718492782,72.9637728367581,1.0,kheda district
maharashtra,2022,4,21.330021474556062,74.68102741545958,1.0,dhule district
gujarat,2023,1,22.055634565774,69.2579536372576,1.0,devbhumi dwarka district
karnataka,2024,3,13.682910973588744,76.04499299765236,2.0,chikkamagaluru district
telangana,2020,4,17.444662303965664,79.52099936213783,6.0,suryapet district
andhra-pradesh,2024,2,14.318651885811924,79.85768278035899,3.0,spsr nellore district
tamil-nadu,2024,4,10.777447271755074,78.97972709012171,2.0,thanjavur district
karnataka,2022,4,14.358781401508727,74.8799517907351,2.0,uttara kannada district
tamil-nadu,2023,1,12.417346510707068,77.7738162661549,1.0,krishnagiri district
chhattisgarh,2022,4,20.1126760817352,81.35644108777949,1.0,kanker district
telangana,2021,2,17.19504020563194,79.21691744209795,3.0,nalgonda district
rajasthan,2024,2,27.186170840852817,76.091401111406,4.0,jaipur district
gujarat,2021,3,22.816614563248347,74.3294199424752,1.0,dohad district
odisha,2024,1,22.006894425300807,83.7677147582912,2.0,sundargarh district
jharkhand,2021,4,24.47273264591283,83.75709545444177,1.0,garhwa district
uttar-pradesh,2021,2,26.2205587578187,83.02002454105491,1.0,azamgarh district
uttar-pradesh,2021,3,26.65383257676228,80.05908042022612,1.0,kanpur nagar district
uttar-pradesh,2021,3,27.37908814006044,77.63642991038303,2.0,mathura district
maharashtra,2024,4,17.550770904332765,75.83596448863948,2.0,solapur district
tamil-nadu,2023,4,11.945854490078016,78.298863666532,2.0,dharmapuri district
madhya-pradesh,2020,4,24.492451567181,81.49928841516527,1.0,rewa district
rajasthan,2023,1,26.9280700865682,76.64704699668393,9.0,dausa district
uttar-pradesh,2023,4,27.051761177272716,81.12512353029443,2.0,bara banki district
chhattisgarh,2024,4,23.01354145075605,82.12239766878987,1.0,gaurela pendra marwahi district
maharashtra,2021,4,18.29757794926765,73.63596019144958,1.0,pune district
madhya-pradesh,2024,4,22.770584101419203,75.41699181970844,1.0,dhar district
andhra-pradesh,2023,3,14.851198385002142,77.59059696075337,1.0,anantapur district
assam,2021,1,25.787086653742957,89.9299948647112,1.0,south salmara mancachar district
tamil-nadu,2023,1,8.96349861385703,77.94530909499552,1.0,thoothukkudi district
andhra-pradesh,2022,4,18.12648115558672,82.63213759797664,1.0,visakhapatnam district
madhya-pradesh,2022,1,24.900833252511138,81.84975674334561,1.0,rewa district
gujarat,2020,2,21.402799535967866,72.19492282939832,1.0,bhavnagar district
maharashtra,2021,1,20.631764300235695,74.03588760058483,3.0,nashik district
gujarat,2024,4,22.600823691780505,71.70886299463996,1.0,surendranagar district
tamil-nadu,2020,4,12.48188606557193,79.28457719720743,1.0,tiruvannamalai district
telangana,2023,4,18.506100502988502,79.25075341651123,4.0,peddapalle district
rajasthan,2023,1,25.727849028726794,74.29422077815647,1.0,bhilwara district
karnataka,2023,3,13.716418608946908,77.72803964967561,1.0,chikkaballapura district
tripura,2024,1,23.582177789516965,91.63236074310348,5.0,gomati district
rajasthan,2022,3,27.786393295087464,75.9985692625754,2.0,sikar district
punjab,2022,1,30.14232155472866,76.39266680573678,1.0,patiala district
bihar,2020,3,25.61194723566769,84.47501365036504,1.0,bhojpur district
uttar-pradesh,2021,2,25.680650941679552,81.69663059424752,1.0,pratapgarh district
bihar,2021,3,26.26539487303383,84.93492613150339,1.0,muzaffarpur district
haryana,2022,4,29.07663058963307,77.10824443175821,6.0,sonipat district
gujarat,2024,1,23.35785040748036,73.84778739924586,1.0,mahisagar district
uttar-pradesh,2023,2,26.69982266232101,79.40849284843318,3.0,auraiya district
bihar,2021,4,25.439207861525816,87.80092370698576,1.0,katihar district
gujarat,2023,3,21.943062189918827,73.47105404337144,2.0,narmada district
andhra-pradesh,2024,3,16.22958903832154,80.41596031893934,33.0,guntur district
telangana,2023,2,16.717172025176787,77.76237388528826,1.0,mahbubnagar district
tamil-nadu,2023,2,11.260770034284183,77.39560042224907,13.0,tiruppur district
uttar-pradesh,2022,2,28.03450619812412,78.8212750396855,1.0,budaun district
tamil-nadu,2023,2,12.247137007312658,77.7394855756989,1.0,krishnagiri district
uttar-pradesh,2021,2,26.430033548719067,82.2746240405089,2.0,ambedkar nagar district
west-bengal,2023,1,21.944603061917416,87.87952300467136,5.0,purba medinipur district
haryana,2023,3,28.863995731759235,77.01614358689307,8.0,sonipat district
tamil-nadu,2023,2,10.944292946231185,77.81957393196669,2.0,karur district
karnataka,2023,2,16.010669771021533,75.89405921541561,1.0,bagalkote district
himachal-pradesh,2024,1,32.15251577665869,75.87082418808833,3.0,kangra district
maharashtra,2022,2,17.232843693017063,75.1253491764979,1.0,sangli district
west-bengal,2024,4,23.4138469590785,87.3463258250269,5.0,bankura district
madhya-pradesh,2024,1,23.033473861576965,81.15821124443937,1.0,dindori district
telangana,2022,2,17.09910094807004,79.38597503411559,1.0,nalgonda district
andhra-pradesh,2020,4,18.16894720150622,83.84199886790925,1.0,srikakulam district
madhya-pradesh,2021,2,21.865438201087173,79.76802433996306,1.0,seoni district
andhra-pradesh,2024,2,16.411718537345205,81.69663059424752,1.0,west godavari district
telangana,2022,4,17.431969600870445,79.07015482048465,1.0,yadadri bhuvanagiri district
maharashtra,2024,1,20.246757919586084,73.61241017489317,2.0,nashik district
uttar-pradesh,2024,3,26.866016926205106,83.02002454105491,1.0,sant kabir nagar district
rajasthan,2021,3,25.369114866016773,72.77473246268165,4.0,jalore district
rajasthan,2022,4,26.67152893977312,76.99310740559372,3.0,karauli district
tamil-nadu,2022,2,11.785563744115931,78.2191320034372,2.0,salem district
andhra-pradesh,2022,1,16.62741642312756,82.133281817645,3.0,east godavari district
maharashtra,2021,3,18.08772031060172,73.47105404337144,12.0,raigad district
gujarat,2023,3,21.275571490483323,73.40034049636118,1.0,tapi district
uttar-pradesh,2023,4,27.535093477922292,77.84244563141633,5.0,mathura district
andhra-pradesh,2024,2,17.54605156303474,82.23116420009576,7.0,east godavari district
madhya-pradesh,2020,2,24.951270587206245,81.48830971672723,2.0,rewa district
rajasthan,2020,3,26.077564463284386,75.98696089865172,1.0,tonk district
andhra-pradesh,2023,4,19.072927337373663,83.6508025259054,1.0,vizianagaram district
karnataka,2024,1,14.395947288232628,75.46360309640293,2.0,haveri district
karnataka,2020,4,16.12607480446326,76.42738438423395,1.0,raichur district
madhya-pradesh,2021,2,24.98025134803732,81.37843508002648,1.0,rewa district
uttarakhand,2024,2,29.76430138483481,78.10512463060137,1.0,haridwar district
andhra-pradesh,2023,4,18.93056999374521,83.64016326563315,1.0,vizianagaram district
madhya-pradesh,2022,3,23.52420527047253,77.79669747328762,36.0,vidisha district
maharashtra,2024,3,17.694042944805922,75.1253491764979,4.0,solapur district
rajasthan,2024,1,25.310511354166145,72.01718622633405,1.0,jalore district
odisha,2024,2,21.495029821178345,86.6258353357258,5.0,baleshwar district
haryana,2022,2,28.85966468979015,76.73942370312189,3.0,rohtak district
rajasthan,2022,1,27.14628050735956,75.38202391904463,1.0,jaipur district
maharashtra,2024,2,19.884640574665227,78.95710689027781,1.0,yavatmal district
andhra-pradesh,2022,1,15.932575313350046,80.54940073446988,8.0,guntur district
gujarat,2022,4,24.36897052834879,71.72072710619688,1.0,banas kantha district
maharashtra,2023,1,16.201974888328433,74.23554035653764,1.0,kolhapur district
tripura,2021,1,23.92997420384141,91.33246197620645,3.0,west tripura district
west-bengal,2021,4,21.927850425641108,88.53236059619923,1.0,south twenty four parganas district
west-bengal,2022,1,23.11355107487928,86.58549245102844,2.0,purulia district
gujarat,2022,3,23.51671320958908,72.86927112233263,1.0,sabar kantha district
tamil-nadu,2024,2,11.491956854194738,78.1279359341075,8.0,namakkal district
west-bengal,2023,3,22.751918781021967,86.95740226788428,1.0,bankura district
odisha,2020,4,18.37946619755873,82.17680177406585,2.0,malkangiri district
karnataka,2023,4,16.71453804567229,76.61238837293442,2.0,yadgir district
telangana,2021,4,17.266672494096916,78.61717532516249,10.0,rangareddy district
assam,2023,4,26.233677036988183,90.88181508100502,3.0,barpeta district
west-bengal,2020,2,22.515264746170164,87.78125243163673,2.0,paschim medinipur district
punjab,2024,1,30.863806446311383,76.48522653528333,1.0,rupnagar district
haryana,2020,3,28.941350974770508,76.43895486617586,3.0,rohtak district
assam,2024,1,26.418664034252,93.93174677573434,2.0,golaghat district
tamil-nadu,2022,2,12.21760700654382,79.75681066479464,1.0,viluppuram district
madhya-pradesh,2022,2,22.252001108576263,75.4752536575752,1.0,dhar district
tamil-nadu,2023,2,10.853205654202112,78.88921461408252,3.0,thanjavur district
west-bengal,2021,4,22.44694928746952,88.0167406167132,4.0,howrah district
uttarakhand,2023,4,30.04606965957056,79.53224241567446,1.0,chamoli district
rajasthan,2022,3,27.74236487855175,76.36951665693532,3.0,alwar district
maharashtra,2022,4,21.115407792269465,80.23770779550036,2.0,gondia district
tamil-nadu,2020,4,13.150793069158668,79.52099936213783,3.0,thiruvallur district
telangana,2022,4,19.212413492659312,78.5263304921143,1.0,nirmal district
madhya-pradesh,2023,1,26.63483048416653,78.86657333085826,1.0,bhind district
uttar-pradesh,2020,4,26.771431914255004,82.11151185821876,3.0,ayodhya district
west-bengal,2021,1,23.134305362651503,88.88867835456136,2.0,north twenty four parganas district
chhattisgarh,2021,4,21.2911830105976,83.05224675437415,2.0,mahasamund district
maharashtra,2021,2,18.729770995393217,73.70659399244202,10.0,pune district
himachal-pradesh,2024,1,31.308533273210475,77.64788523069338,1.0,shimla district
maharashtra,2023,3,19.479590868219297,75.73133421000526,2.0,jalna district
karnataka,2023,4,13.75474537874702,75.91729041155865,1.0,chikkamagaluru district
chhattisgarh,2021,1,21.97955180268434,83.0844531912709,6.0,raigarh district
karnataka,2022,3,13.4481677044562,76.92397271060467,4.0,tumakuru district
rajasthan,2024,2,27.229559372928563,75.30040090996116,3.0,sikar district
jharkhand,2022,4,24.229407669524456,85.60750640395403,4.0,hazaribagh district
assam,2022,3,25.959921363241897,93.41450754897156,1.0,karbi anglong district
andhra-pradesh,2022,3,14.46201807149512,77.80813629685755,1.0,anantapur district
telangana,2022,4,17.511866137964862,78.03666140370396,7.0,sangareddy district
bihar,2024,3,25.97123965552869,87.10736577006638,2.0,araria district
andhra-pradesh,2024,3,14.724401110153185,76.92397271060467,2.0,ananthapuramu district
bihar,2021,2,25.70566336618908,87.44553398994063,4.0,purnia district
madhya-pradesh,2024,1,22.862231698085555,75.03190858073782,1.0,dhar district
gujarat,2021,4,20.96562362969043,73.30601969974819,2.0,tapi district
maharashtra,2020,3,17.594705417280917,75.96374126459287,2.0,solapur district
maharashtra,2024,3,18.96797773278956,75.28873693094538,1.0,beed district
andhra-pradesh,2020,3,16.524698755071224,80.77132104754996,59.0,krishna district
madhya-pradesh,2022,3,22.600269826624142,75.46360309640293,1.0,dhar district
madhya-pradesh,2021,3,22.9548828292374,76.03338852482418,21.0,dewas district
telangana,2024,4,19.06724316543738,79.02495158966912,3.0,jagtial district
andhra-pradesh,2021,3,16.5604260113492,79.79044745099883,1.0,guntur district
karnataka,2022,1,12.323319307009694,76.28845920608694,5.0,mysuru district
karnataka,2024,3,16.76063351701186,75.25373970206532,2.0,belagavi district
uttar-pradesh,2023,3,26.89834272096135,83.20240803638441,1.0,sant kabeer nagar district
madhya-pradesh,2021,2,26.49860444054327,78.61717532516249,1.0,bhind district
andhra-pradesh,2021,3,16.607779079855543,81.60898731024885,4.0,west godavari district
andhra-pradesh,2022,4,14.80223020251603,79.35218804024622,4.0,spsr nellore district
uttarakhand,2023,4,29.856952170222748,79.89128125660861,1.0,bageshwar district
chhattisgarh,2021,1,18.82322860748821,80.79347975603018,1.0,bijapur district
odisha,2022,2,19.47584774631251,84.77855233916235,1.0,ganjam district
bihar,2020,4,25.36766376047604,87.08739782057444,4.0,bhagalpur district
gujarat,2023,3,23.92152942131403,71.53085077781094,2.0,patan district
maharashtra,2024,1,19.223809678136394,77.29223320023456,3.0,nanded district
tamil-nadu,2022,2,8.425611640207068,77.6593393814543,2.0,tirunelveli district
andhra-pradesh,2020,2,16.93133432273672,81.53221491659257,1.0,west godavari district
uttar-pradesh,2020,3,25.04926692626967,78.43540423861062,2.0,lalitpur district
karnataka,2024,2,13.262992889776529,77.97957528196983,7.0,kolar district
west-bengal,2024,1,23.345644631476475,87.56430398539622,2.0,purba bardhaman district
rajasthan,2022,3,23.626040602008363,73.97712595918333,1.0,dungarpur district
uttar-pradesh,2024,3,28.70271073115989,77.99099492887416,5.0,hapur district
karnataka,2023,4,13.57582425270344,76.98158767703828,12.0,tumakuru district
madhya-pradesh,2023,2,23.812084205084087,76.62394229490556,1.0,rajgarh district
telangana,2023,3,18.02711573522019,80.85991926425709,1.0,bhadradri kothagudem district
maharashtra,2024,3,19.019609238708902,73.47105404337144,1.0,raigad district
uttar-pradesh,2024,3,27.000993226472573,79.7007211421711,2.0,kannauj district
punjab,2022,4,31.32465223864279,74.71614887015095,5.0,tarn taran district
west-bengal,2024,3,23.001742110099077,88.67717707353874,12.0,nadia district
maharashtra,2020,3,18.868503532356133,77.05068964855819,1.0,nanded district
odisha,2023,2,19.28734995970524,84.04317496279305,3.0,gajapati district
odisha,2024,4,20.240891497037204,83.82078395657064,3.0,kandhamal district
rajasthan,2020,2,26.94850610920809,76.38109224004336,2.0,dausa district
maharashtra,2022,3,19.901378037172687,79.62213682619965,1.0,chandrapur district
jharkhand,2021,4,24.24952962429329,85.48396037179121,1.0,hazaribagh district
madhya-pradesh,2022,3,23.270731973734428,76.43895486617586,1.0,shajapur district
andhra-pradesh,2020,3,14.204260892734666,79.8688836966946,3.0,spsr nellore district
uttar-pradesh,2021,4,29.469139103169542,77.25775711887478,4.0,shamli district
rajasthan,2023,4,24.625960461086866,76.97006685839166,10.0,baran district
haryana,2022,3,28.724782771750338,75.89405921541561,2.0,bhiwani district
jharkhand,2024,1,22.680931560719618,85.90489618222507,21.0,saraikela kharsawan district
uttar-pradesh,2020,4,25.32294244920921,83.46968984178382,1.0,chandauli district
assam,2023,4,26.42249619933182,93.78923276135,1.0,golaghat district
uttarakhand,2024,1,29.805395586665824,80.42708854212685,5.0,pithoragarh district
rajasthan,2021,4,25.312736467332936,72.21861281133312,1.0,jalore district
odisha,2021,4,20.24684702584953,85.17385761059063,2.0,nayagarh district
andhra-pradesh,2022,1,18.810668664437337,83.94796365473805,5.0,srikakulam district
west-bengal,2021,3,22.937784443486407,88.23151295255164,1.0,hooghly district
rajasthan,2023,2,27.865654650932903,75.13702538455122,1.0,sikar district
gujarat,2023,1,22.959050992811484,72.72744952031074,11.0,ahmadabad district
odisha,2021,3,19.665686311556417,84.77855233916235,2.0,ganjam district
rajasthan,2021,2,24.70715695173601,74.24727794872852,3.0,chittorgarh district
chhattisgarh,2022,4,22.76370986630776,81.86068210541121,1.0,bilaspur district
karnataka,2023,1,12.354351167197338,76.88939072173052,3.0,mysuru district
andaman-&-nicobar-islands,2024,4,12.830660923160064,92.82281244301362,1.0,north and middle andaman district
madhya-pradesh,2024,2,24.413278938399102,81.13615432911952,2.0,satna district
rajasthan,2023,4,25.322428724938582,74.59904917690314,306.0,bhilwara district
chhattisgarh,2022,4,19.981710340100808,82.64294242666178,1.0,gariyaband district
bihar,2021,4,27.27885269353047,84.3909990905796,1.0,pashchim champaran district
haryana,2024,4,30.02591368311976,77.01614358689307,8.0,kurukshetra district
west-bengal,2023,4,22.139241278605603,88.21203153977605,19.0,south twenty four parganas district
rajasthan,2020,4,25.16989939438208,72.64468290336423,1.0,jalore district
rajasthan,2021,1,27.53435969368172,75.35870751022537,3.0,sikar district
assam,2020,3,26.178065775664145,91.75874959926448,89.0,kamrup metropolitan district
maharashtra,2021,3,17.261673759620617,74.16509908485864,7.0,satara district
bihar,2024,4,25.18439801435725,85.85374175151827,3.0,sheikhpura district
andhra-pradesh,2022,2,15.363046763847828,79.02495158966912,1.0,prakasam district
rajasthan,2023,2,24.02960394467206,75.81271993338781,1.0,jhalawar district
uttar-pradesh,2022,2,29.120491161020556,77.56767350389504,16.0,meerut district
uttar-pradesh,2023,3,30.27070187332477,77.55621003470615,1.0,saharanpur district
andhra-pradesh,2022,4,14.720184704083003,77.49887533552753,1.0,anantapur district
jharkhand,2023,4,24.260104762997013,85.0597136767166,2.0,chatra district
himachal-pradesh,2022,3,30.493512620339757,77.75093032135311,1.0,sirmaur district
telangana,2024,2,17.313407936408193,78.02524660458907,4.0,rangareddy district
uttar-pradesh,2024,2,29.95197720645773,77.6593393814543,26.0,saharanpur district
madhya-pradesh,2023,1,23.915707882484448,80.3268812242327,2.0,katni district
andhra-pradesh,2020,3,16.65522944665205,80.5605110605323,15.0,krishna district
rajasthan,2023,2,29.32779079340697,73.19986041423512,1.0,ganganagar district
maharashtra,2023,2,21.34729758829538,80.37143260200438,27.0,gondia district
tamil-nadu,2024,4,11.572333750516526,79.34092297471167,5.0,cuddalore district
rajasthan,2023,3,24.751066908204614,74.5521869084669,3.0,chittorgarh district
maharashtra,2021,2,19.307202501249986,73.34139478762033,1.0,thane district
odisha,2020,3,20.40307814721096,86.1802619071185,4.0,cuttack district
maharashtra,2024,4,17.86110531799063,75.48690331265851,7.0,solapur district
maharashtra,2023,1,18.20123074584963,76.83173251222411,1.0,latur district
bihar,2022,3,25.96333012107968,84.6949770486526,7.0,saran district
punjab,2022,3,31.633455451648672,75.53349284323835,1.0,kapurthala district
andhra-pradesh,2023,1,17.159776583450572,82.26376159311367,5.0,east godavari district
gujarat,2023,2,21.36256476586671,70.82983336593365,1.0,junagadh district
west-bengal,2023,1,24.035788656416504,87.58406923117236,4.0,birbhum district
maharashtra,2024,1,21.49227031423571,78.23052596139479,1.0,amravati district
tamil-nadu,2022,1,9.42703150269203,77.79669747328762,45.0,virudhunagar district
bihar,2024,3,26.02868592181488,85.60750640395403,3.0,muzaffarpur district
madhya-pradesh,2022,4,25.939966532006533,76.85479902189695,1.0,sheopur district
chhattisgarh,2022,3,21.63974800706532,82.90174189927437,3.0,baloda bazar district
assam,2022,3,26.37276590109545,91.23617057914934,1.0,nalbari district
bihar,2022,3,25.47613674269086,87.18715370283034,4.0,purnia district
gujarat,2022,2,23.358572721725093,73.10545444454523,2.0,sabar kantha district
karnataka,2023,3,15.367552821830682,75.52184682694181,4.0,gadag district
bihar,2021,3,26.652865440679708,85.6177890578552,2.0,sitamarhi district
uttar-pradesh,2021,1,25.04926692626967,78.43540423861062,2.0,lalitpur district
odisha,2023,2,19.55483923884673,82.62133105703178,1.0,kalahandi district
andhra-pradesh,2023,4,16.897432811426746,80.23770779550036,9.0,krishna district
bihar,2024,1,26.890562606580545,84.35946264529322,7.0,pashchim champaran district
rajasthan,2023,3,26.76955939878821,76.68169617295068,1.0,karauli district
tamil-nadu,2023,3,10.911912149457164,79.62213682619965,4.0,thiruvarur district
west-bengal,2022,2,21.758131863449467,88.23151295255164,2.0,south twenty four parganas district
maharashtra,2023,4,18.36045688319963,75.82434268562162,3.0,solapur district
west-bengal,2024,4,24.13877333077235,88.1535352158652,5.0,murshidabad district
punjab,2022,2,30.02577243037025,74.3646122414788,1.0,fazilka district
odisha,2023,4,21.083933673610044,83.85260358369386,1.0,sonepur district
gujarat,2022,1,22.67241290424276,72.43173229389957,1.0,ahmadabad district
rajasthan,2021,4,27.96617054768722,75.21873456590254,7.0,jhunjhunu district
karnataka,2023,4,12.591708597775252,75.24207219999633,6.0,dakshina kannada district
bihar,2022,4,26.184933253286392,84.66360489022308,3.0,siwan district
bihar,2024,4,25.912675368440222,86.58549245102844,12.0,saharsa district
odisha,2022,1,22.3011629081111,85.08048456206507,1.0,sundargarh district
uttar-pradesh,2021,4,26.06182742540596,81.3894296981709,1.0,amethi district
maharashtra,2024,2,20.32974175302053,79.90247789771557,1.0,chandrapur district
maharashtra,2020,2,20.676256780812714,77.01614358689307,21.0,akola district
uttar-pradesh,2024,2,26.78921283502237,82.43735891349489,12.0,basti district
bihar,2021,3,26.40779801412431,85.68971213002771,9.0,darbhanga district
uttar-pradesh,2023,2,28.69638649670337,78.33301571784003,1.0,amroha district
punjab,2023,2,30.77116839768314,76.78558663947354,137.0,sas nagar district
assam,2023,4,26.681081195205365,93.80956762247315,5.0,golaghat district
uttar-pradesh,2023,4,26.298674591479568,79.82407150068019,1.0,kanpur dehat district
uttar-pradesh,2021,1,27.397925006039035,79.56596325253265,3.0,farrukhabad district
uttar-pradesh,2024,1,25.686779829502512,83.97971732130083,3.0,ballia district
haryana,2024,3,28.9893944118982,76.46209275527582,4.0,rohtak district
madhya-pradesh,2022,4,24.32952415721425,81.75135508102453,4.0,sidhi district
uttar-pradesh,2023,4,26.153415559271544,81.95893664363895,1.0,amethi district
karnataka,2023,3,15.037414722809562,74.35288224042168,1.0,uttara kannada district
tamil-nadu,2023,4,10.812805544458277,79.03625439452695,3.0,thanjavur district
west-bengal,2021,1,26.468630702321185,88.94617484154017,1.0,koch bihar district
punjab,2022,3,32.0058499539791,75.35870751022537,9.0,gurdaspur district
uttar-pradesh,2023,2,27.68547557000085,81.95893664363895,3.0,shravasti district
rajasthan,2022,4,28.97081494512873,75.02022466170382,1.0,hanumangarh district
bihar,2024,4,25.47502136928511,87.82058640728447,5.0,katihar district
punjab,2024,2,29.981830186117005,74.75126302188613,2.0,bathinda district
madhya-pradesh,2022,3,23.006950743595525,77.62497342187812,7.0,raisen district
telangana,2023,3,18.095999617673066,77.8767442334854,3.0,sangareddy district
uttar-pradesh,2023,2,27.09067321522802,79.79044745099883,3.0,kannauj district
rajasthan,2023,2,25.33312578406217,74.05938718735511,1.0,bhilwara district
tamil-nadu,2023,3,11.959788606948331,79.79044745099883,37.0,viluppuram district
assam,2021,3,26.24722723873441,92.66360662053494,1.0,nagaon district
maharashtra,2021,4,19.97147700373172,78.84392680260993,1.0,yavatmal district
madhya-pradesh,2023,3,23.245926360147298,75.51019989878472,2.0,ujjain district
karnataka,2024,2,15.247029672976796,75.25373970206532,12.0,dharwad district
rajasthan,2022,3,24.723552789309505,71.09137476384232,1.0,barmer district
madhya-pradesh,2022,2,21.855779707882817,76.84326630377865,2.0,east nimar district
telangana,2022,3,18.391177026511784,78.11653089466729,3.0,kamareddy district
rajasthan,2024,4,23.363536726332946,74.01238511084367,10.0,banswara district
haryana,2023,3,29.49524760720453,76.06819901288607,3.0,jind district
maharashtra,2023,1,18.794385234783334,74.04763775758458,1.0,pune district
jammu-&-kashmir,2023,2,33.69261024964799,75.07863573282911,18.0,anantnag district
bihar,2023,1,24.988386184111228,85.23601887259203,1.0,gaya district
gujarat,2023,1,21.87540111961485,69.5320823931033,1.0,porbandar district
west-bengal,2023,2,22.09249585034202,88.28990503434632,13.0,south twenty four parganas district
tamil-nadu,2024,2,13.090355766503905,79.1943533685031,1.0,vellore district
uttar-pradesh,2023,3,28.78376211627291,78.38991078921848,10.0,amroha district
uttar-pradesh,2021,2,25.557373265635523,83.43767486707632,1.0,ghazipur district
himachal-pradesh,2021,1,31.72955460794648,75.98696089865172,1.0,una district
jharkhand,2021,1,23.454853132676515,85.11162636754604,3.0,ranchi district
gujarat,2024,3,23.633456935822007,72.08829379089893,2.0,patan district
kerala,2023,1,9.999359902078568,76.78558663947354,24.0,idukki district
madhya-pradesh,2023,1,22.27269097701439,77.83101037726833,1.0,betul district
andhra-pradesh,2024,1,14.082330791085749,79.7007211421711,1.0,spsr nellore district
madhya-pradesh,2021,2,22.089301189591207,76.5546031082873,1.0,east nimar district
telangana,2022,3,17.64570143974778,79.56596325253265,3.0,warangal rural district
west-bengal,2024,1,22.671700280072148,87.12732533879529,1.0,paschim medinipur district
uttar-pradesh,2021,4,27.322674225026624,78.46951108250524,2.0,firozabad district
gujarat,2024,2,21.05747972473124,70.28250045042067,1.0,junagadh district
jammu-&-kashmir,2023,3,32.50437955122756,74.91503133858134,1.0,samba district
andhra-pradesh,2021,4,14.520086743639675,76.98158767703828,1.0,anantapur district
maharashtra,2024,3,17.27610152172677,74.05938718735511,2.0,satara district
bihar,2024,1,26.18677593854834,84.40150748754279,10.0,siwan district
uttar-pradesh,2022,2,25.1977064224539,82.80480866854462,1.0,varanasi district
haryana,2022,3,27.87510007500904,76.091401111406,11.0,mahendragarh district
bihar,2022,4,25.960408750672894,87.15724896535345,1.0,araria district
rajasthan,2024,4,26.19622907511451,74.3646122414788,1.0,beawar district
tamil-nadu,2022,2,8.942652282259164,77.29223320023456,30.0,tenkasi district
karnataka,2023,2,17.621258125815523,77.01614358689307,3.0,kalaburagi district
maharashtra,2023,2,21.061666213149792,79.92486689605576,1.0,bhandara district
assam,2023,1,27.38429080852122,95.89343382366712,1.0,tinsukia district
karnataka,2024,1,14.381270606616033,75.2304038207915,10.0,shivamogga district
karnataka,2022,1,12.939414813530446,77.84244563141633,9.0,kolar district
kerala,2020,4,11.978627345056928,75.62662797368989,4.0,kannur district
odisha,2022,2,22.03429197955171,83.55498416675879,1.0,sundargarh district
andhra-pradesh,2021,3,13.316993758746706,78.91185064194453,2.0,chittoor district
punjab,2023,3,31.58315578330565,75.77784599570788,2.0,hoshiarpur district
bihar,2023,1,24.78702703896973,84.53794547781105,1.0,aurangabad district
tripura,2021,2,23.716409269330008,91.27466069929773,3.0,west tripura district
madhya-pradesh,2024,2,24.55046714260584,82.133281817645,4.0,sidhi district
maharashtra,2023,4,20.2910891724654,76.56616224385043,1.0,buldhana district
karnataka,2022,3,12.8187665386847,75.30040090996116,2.0,dakshina kannada district
gujarat,2021,4,21.047500071065173,70.29440503549401,2.0,junagadh district
karnataka,2021,1,12.98287101744158,75.2304038207915,1.0,dakshina kannada district
uttar-pradesh,2022,3,25.86514958230802,83.21312062097994,1.0,azamgarh district
tamil-nadu,2024,2,10.435258889201515,79.02495158966912,1.0,pudukkottai district
maharashtra,2024,1,19.00370703524081,75.30040090996116,2.0,ahmednagar district
karnataka,2021,4,15.079080884549963,75.64990253685966,1.0,gadag district
chhattisgarh,2020,3,22.272405346617347,82.70773538215737,2.0,korba district
maharashtra,2020,4,19.118647796667204,74.05938718735511,2.0,pune district
madhya-pradesh,2024,3,24.37005543957658,80.43821528048849,1.0,panna district
karnataka,2022,4,18.099216561768287,77.21177329224568,1.0,bidar district
telangana,2023,1,18.103166164899115,77.62497342187812,1.0,sangareddy district
haryana,2022,3,29.59694291899904,76.83173251222411,5.0,karnal district
assam,2023,1,26.540863326761365,90.83416243434262,1.0,chirang district
madhya-pradesh,2020,3,24.303281736623443,80.85991926425709,2.0,satna district
uttar-pradesh,2023,3,26.234357099343704,81.3124341114798,3.0,rae bareli district
odisha,2022,1,20.728499761045523,85.40143868428044,3.0,dhenkanal district
uttar-pradesh,2023,3,25.089155359983085,83.25595326647776,2.0,chandauli district
west-bengal,2023,2,22.85917515188652,88.71571126013147,20.0,north twenty four parganas district
odisha,2024,4,19.365536599711604,83.55498416675877,2.0,rayagada district
uttar-pradesh,2024,4,27.7928687191908,80.70480843714222,1.0,sitapur district
karnataka,2024,1,13.489995174420596,75.06695522632855,4.0,udupi district
west-bengal,2023,4,23.242869840440783,86.52491644055054,1.0,purulia district
andhra-pradesh,2024,3,15.918655467283047,80.23770779550036,1.0,bapatla district
tamil-nadu,2024,4,10.752282894818691,77.72803964967561,1.0,tiruppur district
uttar-pradesh,2023,2,25.4305197495232,83.46968984178382,5.0,ghazipur district
maharashtra,2021,1,17.740913615351964,75.5917091963611,1.0,solapur district
andhra-pradesh,2023,1,17.34085174677666,82.39400004583915,1.0,east godavari district
karnataka,2024,4,13.77675542726918,76.1030006883436,1.0,chikkamagaluru district
telangana,2021,4,16.03547159685505,77.57913581303016,1.0,jogulamba gadwal district
uttar-pradesh,2024,2,29.413111377463803,77.75093032135311,11.0,muzaffarnagar district
rajasthan,2022,2,27.56258240448778,76.64704699668393,24.0,alwar district
jharkhand,2023,3,24.126598049988477,86.20060082163488,2.0,giridih district
maharashtra,2020,4,17.851702102347044,74.92672285045667,5.0,solapur district
west-bengal,2024,2,23.09456198312551,88.40645404103664,7.0,hooghly district
haryana,2024,2,29.736369981274127,76.41581287924114,6.0,kaithal district
karnataka,2024,1,13.02773757330347,77.79669747328762,73.0,bengaluru rural district
madhya-pradesh,2024,3,22.320086106485533,78.61717532516249,2.0,chhindwara district
bihar,2022,2,25.478852869992053,85.41176077430904,2.0,patna district
assam,2021,4,26.812869238413352,94.14625824848174,1.0,jorhat district
west-bengal,2024,3,23.69246214482589,86.98743256427319,67.0,paschim bardhaman district
uttar-pradesh,2024,1,28.185477738113665,78.15074233378512,2.0,bulandshahr district
bihar,2024,2,24.873547618387803,86.68628785764987,1.0,banka district
rajasthan,2021,1,27.74467565671503,76.39266680573678,1.0,alwar district
west-bengal,2021,1,25.362425953823895,88.26071877753391,2.0,dakshin dinajpur district
karnataka,2022,1,12.819823329387956,76.33478381722806,4.0,hassan district
uttar-pradesh,2020,4,26.57458087066651,83.82078395657064,2.0,deoria district
assam,2023,2,27.4963052673268,95.44109235097052,4.0,tinsukia district
kerala,2022,4,8.901018925404738,77.06220280750642,5.0,kollam district
odisha,2024,1,19.869884506740604,83.41632260167401,3.0,kalahandi district
bihar,2021,1,26.545350607229373,85.56635599856945,4.0,sitamarhi district
uttarakhand,2022,1,30.51214157491846,78.07089850397327,1.0,tehri garhwal district
bihar,2024,3,25.513045134152097,87.97757867123379,7.0,katihar district
himachal-pradesh,2021,4,32.35328990993641,75.98696089865172,1.0,kangra district
andhra-pradesh,2024,4,17.797593727267547,82.95553289637485,18.0,anakapalli district
gujarat,2021,4,22.46404517561184,70.94873570585827,1.0,morbi district
uttar-pradesh,2024,3,27.97413676562867,80.63824129823794,1.0,lakhimpur kheri district
odisha,2023,3,21.256792403542285,85.15312162928252,1.0,anugul district
uttar-pradesh,2021,1,29.19476978620769,77.75093032135311,4.0,meerut district
karnataka,2022,1,17.336043199018,76.73942370312189,1.0,kalaburagi district
rajasthan,2024,4,27.776239682752816,75.4752536575752,3.0,neem ka thana district
jharkhand,2024,1,22.60553045632982,84.22261018991011,1.0,simdega district
bihar,2024,2,25.42227199253008,84.45402129453336,3.0,bhojpur district
andhra-pradesh,2023,3,18.371534105689488,82.56727270547317,1.0,visakhapatnam district
telangana,2022,1,16.94217976947834,78.43540423861062,1.0,nagarkurnool district
andhra-pradesh,2021,2,17.831380617880107,82.9340217212385,24.0,visakhapatnam district
haryana,2021,2,29.517346047926964,76.9470219563662,2.0,karnal district
west-bengal,2024,2,26.972053193675777,88.56136340578877,1.0,kalimpong district
madhya-pradesh,2020,2,22.606602542514636,75.77784599570788,33.0,indore district
uttar-pradesh,2023,4,28.93606156757902,78.43540423861062,5.0,amroha district
andhra-pradesh,2020,3,13.189799160833008,79.11533670045316,21.0,chittoor district
maharashtra,2024,2,18.99245727859152,72.81018874044202,1474.0,mumbai district
uttar-pradesh,2024,2,27.34892452749822,79.53224241567446,4.0,farrukhabad district
telangana,2022,4,17.130179936036534,78.67391170169752,2.0,rangareddy district
rajasthan,2023,2,28.159234541505285,75.52184682694181,3.0,jhunjhunu district
madhya-pradesh,2023,3,24.79504846014145,81.43339229091151,1.0,rewa district
maharashtra,2024,4,19.461830772907533,80.61604017880846,1.0,gadchiroli district
assam,2020,4,25.86531625156885,91.15929626402009,1.0,kamrup district
uttar-pradesh,2024,1,25.246318566462197,81.30142841745936,1.0,chitrakoot district
bihar,2024,1,25.245834554914072,85.93556480173177,2.0,lakhisarai district
maharashtra,2024,1,17.28241220654056,74.84486475527515,2.0,sangli district
maharashtra,2023,3,17.06452868068139,75.4985520602094,2.0,sangli district
west-bengal,2024,2,22.900597196077207,88.09496087064568,21.0,hooghly district
karnataka,2023,4,16.55255416541278,76.78558663947354,2.0,yadgir district
tamil-nadu,2020,2,10.21297844348673,77.76237388528826,3.0,dindigul district
bihar,2024,4,26.46862651159607,84.6949770486526,22.0,purbi champaran district
rajasthan,2024,4,26.69173276880381,72.90471363631887,15.0,jodhpur rural district
madhya-pradesh,2022,4,22.85243425953744,78.85525072171558,19.0,narsinghpur district
jammu-&-kashmir,2023,4,34.53022716257261,73.93010370763156,1.0,kupwara district
karnataka,2020,2,13.958020947603591,76.1030006883436,1.0,chitradurga district
odisha,2022,1,18.2587066200252,81.55415791130464,1.0,malkangiri district
gujarat,2021,4,22.264988598697062,70.81794137363141,53.0,rajkot district
madhya-pradesh,2024,1,26.080190369643983,78.19634037908176,1.0,gwalior district
odisha,2024,2,20.140883260094466,84.40150748754279,1.0,kandhamal district
uttarakhand,2024,2,28.977788264121905,79.47601330857533,2.0,udham singh nagar district
uttar-pradesh,2021,3,25.498295064721223,83.70397166795588,4.0,ghazipur district
karnataka,2021,4,12.958684757623567,77.30372297458574,2.0,ramanagara district
haryana,2022,2,30.43731070179389,76.93549787575917,5.0,ambala district
tamil-nadu,2024,3,10.519444365826768,77.43003569904403,2.0,dindigul district
uttar-pradesh,2020,3,27.08851564562241,78.57176312812575,23.0,firozabad district
tamil-nadu,2024,2,10.57873357230642,77.53327962160228,1.0,dindigul district
andhra-pradesh,2021,1,16.63705035067125,82.07884446714627,3.0,east godavari district
haryana,2024,3,29.610832881215018,74.96179235339719,1.0,sirsa district
odisha,2023,4,19.19812178111547,83.18097756644471,1.0,rayagada district
mizoram,2022,4,24.043414115535896,92.67354117766888,1.0,kolasib district
andhra-pradesh,2022,4,17.391306661884194,82.80480866854462,3.0,visakhapatnam district
odisha,2024,4,21.961215748262,85.64862513228498,3.0,kendujhar district
maharashtra,2023,1,19.621101112649075,77.131258617636,1.0,hingoli district
rajasthan,2023,4,25.576032140509668,71.59019857328981,1.0,barmer district
tamil-nadu,2023,3,10.89300608287605,77.64788523069338,1.0,tiruppur district
bihar,2023,2,26.123317491022394,87.6827676164469,1.0,kishanganj district
madhya-pradesh,2024,3,25.793093459632345,78.09371714324185,5.0,gwalior district
kerala,2022,4,10.778415060282066,76.50835619494828,22.0,palakkad district
karnataka,2022,2,15.393064105393764,76.64704699668393,4.0,ballari district
west-bengal,2021,2,22.262982817500514,87.63344507776253,2.0,paschim medinipur district
rajasthan,2024,2,27.33939655801285,77.20027453793233,4.0,bharatpur district
maharashtra,2021,4,17.97718616484829,74.76296610940305,1.0,solapur district
west-bengal,2022,1,26.561039205078934,88.7060810165344,1.0,jalpaiguri district
himachal-pradesh,2020,4,31.24482509143466,77.11975207803401,1.0,shimla district
telangana,2024,1,18.23226875221857,77.79669747328762,5.0,kamareddy district
assam,2023,2,26.29528204352785,89.79897668933651,1.0,dhubri district
haryana,2023,3,29.10590647485308,76.48522653528333,2.0,sonipat district
karnataka,2023,4,13.47909812936834,76.86633066518836,1.0,tumakuru district
punjab,2024,3,31.48555863769897,75.48690331265851,2.0,kapurthala district
uttar-pradesh,2023,4,27.088679522868244,81.7294701508717,1.0,gonda district
assam,2023,2,26.68552576765647,92.5544660100594,11.0,sonitpur district
jharkhand,2021,4,23.825431979436438,86.50470801259432,24.0,dhanbad district
madhya-pradesh,2021,3,23.54009602334682,75.31206400458815,1.0,ujjain district
west-bengal,2022,1,26.460556252086302,89.79897668933651,1.0,alipurduar district
punjab,2022,1,30.244566618289237,74.12986841096104,5.0,fazilka district
gujarat,2024,4,21.42078720992429,73.93010370763156,1.0,tapi district
west-bengal,2021,3,22.37903827086653,88.32878957469845,3.0,south twenty four parganas district
maharashtra,2024,3,20.76694538530311,80.1261092977288,1.0,gondia district
maharashtra,2021,4,19.84917766992849,74.34115147359432,1.0,nashik district
uttar-pradesh,2024,4,27.878856267675747,81.65282186455418,3.0,bahraich district
bihar,2023,1,25.536048433671237,87.94818457566058,2.0,katihar district
madhya-pradesh,2022,4,22.32035524459262,75.84758534101024,1.0,khargone district
rajasthan,2023,1,25.178543325249585,71.69699845476013,2.0,barmer district
punjab,2023,3,32.25659716617029,75.62662797368989,235.0,pathankot district
rajasthan,2023,1,29.078312565418784,75.37036616117476,3.0,hanumangarh district
